ISO time,Unix time,Id,Longitude,Latitude,Altitude,Roll,Pitch,Yaw,U,V,Heading
2016-06-21T04:00:01Z,1466481601,101,41.6309798,44.5974843,918.79,0,1.1,6.6,585514.19,-23511.25,0.5
2016-06-21T04:00:02Z,1466481602,101,41.6312953,44.599442,921.18,-0,2,6.6,585516.06,-23291.1,0.5
2016-06-21T04:00:03Z,1466481603,101,41.6316098,44.6014015,926.86,-3.1,3.3,6.5,585517.81,-23070.75,0.4
2016-06-21T04:00:04Z,1466481604,101,41.6319184,44.6033776,936.98,-3.9,4.3,6.3,585518.88,-22848.61,0.2
2016-06-21T04:00:05Z,1466481605,101,41.6322138,44.6053387,950.64,-4.4,5.4,6.1,585519.12,-22628.25,0
2016-06-21T04:00:06Z,1466481606,101,41.6325063,44.6073097,969.78,-1.3,7.5,6.1,585519,-22406.81,0
2016-06-21T04:00:07Z,1466481607,101,41.6327995,44.6092712,994.79,-0.8,7.5,6.2,585519,-22186.41,0
2016-06-21T04:00:08Z,1466481608,101,41.6330914,44.6112228,1021.04,-0.4,6.9,6.2,585519.06,-21967.14,0
2016-06-21T04:00:09Z,1466481609,101,41.633384,44.6131807,1047.68,-0.1,8.4,6.1,585519.06,-21747.17,0
2016-06-21T04:00:10Z,1466481610,101,41.633676,44.6151386,1076.86,-0.1,7.9,6.1,585519.06,-21527.19,0
2016-06-21T04:00:11Z,1466481611,101,41.6339667,44.6170878,1105.3,0,7,6.1,585519,-21308.19,0
2016-06-21T04:00:12Z,1466481612,101,41.6342584,44.6190413,1131.93,1.4,7.4,6.2,585519,-21088.7,0
2016-06-21T04:00:13Z,1466481613,101,41.6345521,44.6209927,1158.36,1.8,7,6.2,585519.19,-20869.43,0.1
2016-06-21T04:00:14Z,1466481614,101,41.6348504,44.6229514,1183.68,2.1,6.4,6.3,585519.62,-20649.32,0.2
2016-06-21T04:00:15Z,1466481615,101,41.6351511,44.6249159,1206.97,0.2,6.2,6.2,585520.25,-20428.52,0
2016-06-21T04:00:16Z,1466481616,101,41.6354416,44.6268763,1229.16,0.4,6.2,6.1,585520,-20208.29,359.9
2016-06-21T04:00:17Z,1466481617,101,41.6357318,44.6288388,1251.12,-0.1,6,6.1,585519.81,-19987.81,359.9
2016-06-21T04:00:18Z,1466481618,101,41.6360228,44.6308055,1272.48,-0.8,5.6,6.1,585519.56,-19766.87,359.9
2016-06-21T04:00:19Z,1466481619,101,41.6363124,44.6327713,1292.7,-0.5,5.7,6,585519.25,-19546.04,359.9
2016-06-21T04:00:20Z,1466481620,101,41.6365989,44.6347232,1312.72,0,5.9,6,585518.88,-19326.77,359.9
2016-06-21T04:00:21Z,1466481621,101,41.6368891,44.6366997,1333.43,0.3,5.8,6,585518.44,-19104.74,359.9
2016-06-21T04:00:22Z,1466481622,101,41.6371783,44.6386641,1354.31,1.4,7.2,6.1,585518.06,-18884.06,359.9
2016-06-21T04:00:23Z,1466481623,101,41.6374692,44.6406125,1378.93,2.1,8,6.2,585518.06,-18665.15,0.1
2016-06-21T04:00:24Z,1466481624,101,41.6377667,44.6425656,1406.3,2.3,7.5,6.3,585518.44,-18445.67,0.2
2016-06-21T04:00:25Z,1466481625,101,41.6380698,44.64453,1433.06,1.3,7.1,6.3,585519.25,-18224.87,0.1
2016-06-21T04:00:26Z,1466481626,101,41.6383627,44.6464816,1458.93,0.3,7.3,6.1,585519.31,-18005.58,0
2016-06-21T04:00:27Z,1466481627,101,41.6386529,44.6484262,1484.64,-0.1,6.9,6.1,585519.25,-17787.09,0
2016-06-21T04:00:28Z,1466481628,101,41.6389459,44.6503882,1509.26,0.1,6.2,6.1,585519.19,-17566.66,0
2016-06-21T04:00:29Z,1466481629,101,41.6392401,44.6523579,1531.73,-0.1,5.7,6.1,585519.19,-17345.35,0
2016-06-21T04:00:30Z,1466481630,101,41.6395308,44.6543114,1552.23,-3.2,5.8,6.1,585519,-17125.88,359.9
2016-06-21T04:00:31Z,1466481631,101,41.6398192,44.65629,1572.62,-4,5.7,5.9,585518.44,-16903.62,359.8
2016-06-21T04:00:32Z,1466481632,101,41.6400959,44.658243,1592.41,-4.1,5.5,5.7,585517.19,-16684.32,359.6
2016-06-21T04:00:33Z,1466481633,101,41.6403567,44.6602202,1611.86,-4.8,5.8,5,585514.44,-16462.46,358.9
2016-06-21T04:00:34Z,1466481634,101,41.6405932,44.6621763,1631.72,-1.6,6,5,585510,-16243.16,358.8
2016-06-21T04:00:35Z,1466481635,101,41.640832,44.664152,1652.6,-0.1,6,5,585505.44,-16021.66,358.8
2016-06-21T04:00:36Z,1466481636,101,41.6410687,44.6661102,1673.45,1.8,7,5,585500.94,-15802.12,358.9
2016-06-21T04:00:37Z,1466481637,101,41.641313,44.6680838,1697.77,3.5,8,5.2,585496.94,-15580.8,359
2016-06-21T04:00:38Z,1466481638,101,41.6415634,44.670031,1724.64,3.8,7.5,5.4,585493.69,-15362.36,359.2
2016-06-21T04:00:39Z,1466481639,101,41.6418244,44.6720015,1751.28,3.9,7.4,5.5,585490.94,-15141.25,359.4
2016-06-21T04:00:40Z,1466481640,101,41.6420911,44.6739426,1778.13,5.1,8.2,5.8,585489.06,-14923.35,359.6
2016-06-21T04:00:41Z,1466481641,101,41.6423719,44.6758997,1806.42,5,7.5,6,585488.12,-14703.56,359.8
2016-06-21T04:00:42Z,1466481642,101,41.6426625,44.6778524,1833.17,5.1,7.1,6.5,585487.94,-14484.17,0.3
2016-06-21T04:00:43Z,1466481643,101,41.6429933,44.6798093,1859.18,2.9,7.5,7.1,585490.94,-14263.97,0.9
2016-06-21T04:00:44Z,1466481644,101,41.6433316,44.6817672,1885.62,1.6,7.1,7.1,585494.5,-14043.61,0.9
2016-06-21T04:00:45Z,1466481645,101,41.6436689,44.6837231,1910.75,0.5,6.6,7.1,585498,-13823.46,0.9
2016-06-21T04:00:46Z,1466481646,101,41.6440048,44.685675,1935.28,-3.8,7.4,7,585501.38,-13603.78,0.8
2016-06-21T04:00:47Z,1466481647,101,41.6443325,44.6876235,1960.6,-4.8,7,6.8,585504.25,-13384.54,0.6
2016-06-21T04:00:48Z,1466481648,101,41.6446539,44.6895893,1985.37,-5.1,6.4,6.6,585506.38,-13163.44,0.5
2016-06-21T04:00:49Z,1466481649,101,41.644965,44.6915476,2008.24,-5,6.2,6.4,585507.75,-12943.26,0.3
2016-06-21T04:00:50Z,1466481650,101,41.6452649,44.6934967,2030.1,-4.5,6.3,6.2,585508.38,-12724.2,0.1
2016-06-21T04:00:51Z,1466481651,101,41.6455574,44.695459,2051.91,-4,6.2,6,585508.25,-12503.72,359.9
2016-06-21T04:00:52Z,1466481652,101,41.645843,44.6974285,2073.17,-3.3,5.8,5.9,585507.5,-12282.51,359.7
2016-06-21T04:00:53Z,1466481653,101,41.6461029,44.6993877,2093.17,-4.9,5.9,4.8,585504.81,-12062.66,358.7
2016-06-21T04:00:54Z,1466481654,101,41.6463319,44.7013636,2113.27,-1.5,6,4.8,585499.5,-11841.21,358.6
2016-06-21T04:00:55Z,1466481655,101,41.6465599,44.7033257,2133.73,-0.7,6,4.8,585494.19,-11621.32,358.6
2016-06-21T04:00:56Z,1466481656,101,41.6467894,44.7053014,2154.21,1.7,5.7,4.8,585488.94,-11399.89,358.6
2016-06-21T04:00:57Z,1466481657,101,41.6470215,44.7072712,2174.82,2.2,6.6,4.9,585483.88,-11179.1,358.8
2016-06-21T04:00:58Z,1466481658,101,41.6472566,44.7092213,2196.75,2.4,6.6,5,585479.31,-10960.48,358.9
2016-06-21T04:00:59Z,1466481659,101,41.6474987,44.7111873,2219.24,2.2,6.3,5.1,585475.19,-10740.02,359
2016-06-21T04:01:00Z,1466481660,101,41.6477449,44.7131461,2241.98,1.9,8.4,5.2,585471.38,-10520.33,359.1
2016-06-21T04:01:01Z,1466481661,101,41.6479976,44.7151104,2268.97,1.4,8.2,5.3,585468.06,-10299.98,359.2
2016-06-21T04:01:02Z,1466481662,101,41.6482527,44.7170657,2297.02,1.1,7.5,5.4,585465,-10080.61,359.2
2016-06-21T04:01:03Z,1466481663,101,41.6485108,44.7190186,2324.8,4.3,9.2,5.5,585462.19,-9861.46,359.4
2016-06-21T04:01:04Z,1466481664,101,41.6487788,44.7209686,2355.18,4.8,8.5,5.8,585460.25,-9642.57,359.6
2016-06-21T04:01:05Z,1466481665,101,41.6490566,44.7229194,2384.94,5,7.5,6,585459.06,-9423.51,359.8
2016-06-21T04:01:06Z,1466481666,101,41.6493663,44.7248694,2412.57,4.8,7.9,6.9,585460.38,-9204.25,0.8
2016-06-21T04:01:07Z,1466481667,101,41.6496962,44.7268208,2439.91,1.9,7.3,6.9,585463.31,-8984.67,0.7
2016-06-21T04:01:08Z,1466481668,101,41.6500277,44.7287867,2465.98,0.7,6.6,6.9,585466.19,-8763.48,0.7
2016-06-21T04:01:09Z,1466481669,101,41.6503568,44.7307349,2489.62,0.3,6.7,6.9,585469.06,-8544.26,0.8
2016-06-21T04:01:10Z,1466481670,101,41.6506879,44.7326922,2512.73,-0.2,6.6,6.9,585472.06,-8324.02,0.8
2016-06-21T04:01:11Z,1466481671,101,41.6510178,44.7346439,2535.38,-0.4,6.3,6.9,585474.94,-8104.42,0.8
2016-06-21T04:01:12Z,1466481672,101,41.6513501,44.7366138,2557.29,-1.2,6.7,6.9,585477.81,-7882.76,0.7
2016-06-21T04:01:13Z,1466481673,101,41.6516743,44.7385644,2580.16,-5.5,7.4,6.7,585480.25,-7663.32,0.5
2016-06-21T04:01:14Z,1466481674,101,41.6519858,44.7405164,2604.67,-6.5,7,6.4,585481.69,-7443.83,0.2
2016-06-21T04:01:15Z,1466481675,101,41.6522854,44.7424758,2629,-6.2,8,6.1,585482.12,-7223.63,360
2016-06-21T04:01:16Z,1466481676,101,41.6525657,44.7444262,2656.83,-5.1,11.5,5.7,585481.12,-7004.57,359.5
2016-06-21T04:01:17Z,1466481677,101,41.6528218,44.7463619,2694.84,-3.5,15,5.2,585478.31,-6787.38,359
2016-06-21T04:01:18Z,1466481678,101,41.6530595,44.7482799,2743.48,-1.8,14.2,5,585474.31,-6572.3,358.9
2016-06-21T04:01:19Z,1466481679,101,41.6533009,44.7501988,2794.08,0.2,13.5,5.3,585470.56,-6357.08,359.1
2016-06-21T04:01:20Z,1466481680,101,41.6535446,44.7521037,2842.22,0.2,11.4,5.3,585467.19,-6143.41,359.1
2016-06-21T04:01:21Z,1466481681,101,41.6537919,44.7540377,2884.62,0.4,8.8,5.3,585463.75,-5926.46,359.1
2016-06-21T04:01:22Z,1466481682,101,41.6540405,44.7559813,2918.46,2.1,7,5.3,585460.31,-5708.44,359.1
2016-06-21T04:01:23Z,1466481683,101,41.6542911,44.7579332,2945.38,0.9,6.3,5.3,585456.94,-5489.49,359.1
2016-06-21T04:01:24Z,1466481684,101,41.6545455,44.759906,2968.48,0.5,5.8,5.3,585453.5,-5268.17,359.1
2016-06-21T04:01:25Z,1466481685,101,41.6548015,44.7618828,2988.88,0.4,5.3,5.3,585450.31,-5046.4,359.2
2016-06-21T04:01:26Z,1466481686,101,41.6550557,44.763841,3006.87,0.5,5.6,5.3,585447.06,-4826.72,359.2
2016-06-21T04:01:27Z,1466481687,101,41.6553145,44.7658136,3027.08,2.4,9.7,5.5,585444.06,-4605.38,359.3
2016-06-21T04:01:28Z,1466481688,101,41.6555799,44.7677599,3057.58,2.6,13.5,5.8,585441.88,-4386.91,359.6
2016-06-21T04:01:29Z,1466481689,101,41.655854,44.769679,3100.83,2,16.9,6,585440.75,-4171.41,359.8
2016-06-21T04:01:30Z,1466481690,101,41.6561338,44.7715725,3154.43,1.8,14.9,6.1,585440.31,-3958.69,360
2016-06-21T04:01:31Z,1466481691,101,41.6564195,44.7734728,3207.13,0.9,12.1,6.2,585440.25,-3745.16,0
2016-06-21T04:01:32Z,1466481692,101,41.656709,44.7753942,3252.97,0.7,9.9,6.2,585440.31,-3529.26,0
2016-06-21T04:01:33Z,1466481693,101,41.6570014,44.7773321,3291.14,0.3,8.4,6.2,585440.38,-3311.5,0
2016-06-21T04:01:34Z,1466481694,101,41.6572952,44.7792769,3322.53,0.1,6.9,6.2,585440.44,-3092.97,0
2016-06-21T04:01:35Z,1466481695,101,41.6575898,44.7812268,3348.17,0.1,5.7,6.2,585440.5,-2873.87,0
2016-06-21T04:01:36Z,1466481696,101,41.6578863,44.7831886,3369.06,0,4.8,6.2,585440.56,-2653.41,0
2016-06-21T04:01:37Z,1466481697,101,41.6581847,44.7851629,3385.9,0,4,6.2,585440.69,-2431.56,0
2016-06-21T04:01:38Z,1466481698,101,41.6584829,44.7871355,3399.35,-0,3.6,6.2,585440.75,-2209.9,0
2016-06-21T04:01:39Z,1466481699,101,41.6587799,44.7891031,3411.4,-1.4,4.8,6.2,585440.81,-1988.79,0
2016-06-21T04:01:40Z,1466481700,101,41.6590738,44.7910723,3425.64,-1.7,5.7,6.1,585440.56,-1767.55,359.9
2016-06-21T04:01:41Z,1466481701,101,41.6593637,44.7930468,3442.8,-1.7,6.1,6,585439.94,-1545.75,359.8
2016-06-21T04:01:42Z,1466481702,101,41.6596468,44.7950037,3461.62,-1.5,6.1,5.9,585439.06,-1325.96,359.7
2016-06-21T04:01:43Z,1466481703,101,41.6599273,44.7969655,3480.92,-1.3,5.7,5.8,585437.81,-1105.65,359.7
2016-06-21T04:01:44Z,1466481704,101,41.6602059,44.7989335,3499.56,-1.1,5.2,5.8,585436.38,-884.66,359.6
2016-06-21T04:01:45Z,1466481705,101,41.6604826,44.8009004,3516.62,-0.9,4.7,5.8,585434.81,-663.81,359.6
2016-06-21T04:01:46Z,1466481706,101,41.6607576,44.8028668,3531.71,-0.8,4.1,5.7,585433.12,-443.05,359.5
2016-06-21T04:01:47Z,1466481707,101,41.6610335,44.8048482,3544.76,-0.6,3.5,5.7,585431.31,-220.59,359.5
2016-06-21T04:01:48Z,1466481708,101,41.6613066,44.8068181,3555.62,-0.5,3,5.7,585429.44,0.55,359.5
2016-06-21T04:01:49Z,1466481709,101,41.6615671,44.8087981,3566.93,-38.9,9.8,4.3,585426.44,222.72,358.1