ISO time,Unix time,Id,Longitude,Latitude,Altitude,Roll,Pitch,Yaw,U,V,Heading,Type,Color,Coalition,Name,Pilot,Group,Country
2023-05-12T08:00:01Z,1683878401,101,41.9393556,41.9384909,1997.12,0,7.7,92.9,641848.44,-316348.41,86.8,Air+FixedWing,Red,Allies,MiG-21Bis,固定翼-1-1,固定翼-1,us
2023-05-12T08:00:02Z,1683878402,101,41.9405611,41.9384463,1996.67,0,7.4,92.9,641949,-316342.84,86.8,Air+FixedWing,Red,Allies,MiG-21Bis,固定翼-1-1,固定翼-1,us
2023-05-12T08:00:03Z,1683878403,101,41.9418078,41.9384,1996.88,0,6.7,92.9,642053,-316337.09,86.8,Air+FixedWing,Red,Allies,MiG-21Bis,固定翼-1-1,固定翼-1,us
2023-05-12T08:00:04Z,1683878404,101,41.9430939,41.9383523,1997.38,0,6.1,92.9,642160.31,-316331.16,86.8,Air+FixedWing,Red,Allies,MiG-21Bis,固定翼-1-1,固定翼-1,us
2023-05-12T08:00:05Z,1683878405,101,41.9444409,41.9383023,1997.94,2.4,5.4,92.9,642272.69,-316324.97,86.9,Air+FixedWing,Red,Allies,MiG-21Bis,固定翼-1-1,固定翼-1,us
2023-05-12T08:00:06Z,1683878406,101,41.9458566,41.9382462,1998.48,4.4,4.7,93.3,642390.88,-316318.84,87.2,Air+FixedWing,Red,Allies,MiG-21Bis,固定翼-1-1,固定翼-1,us
2023-05-12T08:00:07Z,1683878407,101,41.9473485,41.9381802,1998.95,5.4,4.2,93.6,642515.5,-316313.16,87.5,Air+FixedWing,Red,Allies,MiG-21Bis,固定翼-1-1,固定翼-1,us
2023-05-12T08:00:08Z,1683878408,101,41.9489,41.9381033,1999.33,5.5,3.7,94.1,642645.19,-316308.16,88,Air+FixedWing,Red,Allies,MiG-21Bis,固定翼-1-1,固定翼-1,us
2023-05-12T08:00:09Z,1683878409,101,41.9505443,41.9380133,1999.61,5.2,3.2,94.5,642782.69,-316303.78,88.4,Air+FixedWing,Red,Allies,MiG-21Bis,固定翼-1-1,固定翼-1,us
2023-05-12T08:00:10Z,1683878410,101,41.9522516,41.9379116,1999.81,4.6,2.9,94.8,642925.62,-316300.19,88.7,Air+FixedWing,Red,Allies,MiG-21Bis,固定翼-1-1,固定翼-1,us
2023-05-12T08:00:11Z,1683878411,101,41.9540324,41.9377966,1999.93,2.1,2.6,95.1,643074.81,-316297.41,89.1,Air+FixedWing,Red,Allies,MiG-21Bis,固定翼-1-1,固定翼-1,us
2023-05-12T08:00:12Z,1683878412,101,41.9558845,41.9376736,2000,0.8,2.4,95.1,643229.94,-316294.88,89.1,Air+FixedWing,Red,Allies,MiG-21Bis,固定翼-1-1,固定翼-1,us
2023-05-12T08:00:13Z,1683878413,101,41.9577408,41.9375504,2000.03,0.5,2.4,95.1,643385.44,-316292.34,89.1,Air+FixedWing,Red,Allies,MiG-21Bis,固定翼-1-1,固定翼-1,us
2023-05-12T08:00:14Z,1683878414,101,41.9595981,41.9374269,2000.05,0.2,2.4,95.1,643541.06,-316289.81,89.1,Air+FixedWing,Red,Allies,MiG-21Bis,固定翼-1-1,固定翼-1,us
2023-05-12T08:00:15Z,1683878415,101,41.9614537,41.9373036,2000.05,0.1,2.4,95.1,643696.5,-316287.31,89.1,Air+FixedWing,Red,Allies,MiG-21Bis,固定翼-1-1,固定翼-1,us
2023-05-12T08:00:16Z,1683878416,101,41.9633153,41.9371798,2000.05,-0.4,2.4,95.1,643852.5,-316284.75,89.1,Air+FixedWing,Red,Allies,MiG-21Bis,固定翼-1-1,固定翼-1,us
2023-05-12T08:00:17Z,1683878417,101,41.9651739,41.937057,2000.05,0.7,2.4,95.1,644008.19,-316282.16,89,Air+FixedWing,Red,Allies,MiG-21Bis,固定翼-1-1,固定翼-1,us
2023-05-12T08:00:18Z,1683878418,101,41.9670472,41.9369318,2000.05,3.9,2.3,95.3,644165.19,-316279.69,89.2,Air+FixedWing,Red,Allies,MiG-21Bis,固定翼-1-1,固定翼-1,us
2023-05-12T08:00:19Z,1683878419,101,41.9689703,41.9367971,2000.05,5.3,2.1,95.5,644326.38,-316277.84,89.5,Air+FixedWing,Red,Allies,MiG-21Bis,固定翼-1-1,固定翼-1,us
2023-05-12T08:00:20Z,1683878420,101,41.9709708,41.9366489,2000.05,5.4,1.9,95.9,644494.12,-316276.78,89.8,Air+FixedWing,Red,Allies,MiG-21Bis,固定翼-1-1,固定翼-1,us
2023-05-12T08:00:21Z,1683878421,101,41.973024,41.9364884,2000.06,5.1,1.7,96.2,644666.44,-316276.66,90.1,Air+FixedWing,Red,Allies,MiG-21Bis,固定翼-1-1,固定翼-1,us
2023-05-12T08:00:22Z,1683878422,101,41.9751556,41.9363137,2000.06,4.7,1.5,96.4,644845.44,-316277.41,90.3,Air+FixedWing,Red,Allies,MiG-21Bis,固定翼-1-1,固定翼-1,us
2023-05-12T08:00:23Z,1683878423,101,41.9773527,41.9361309,2000.09,1.7,1.5,95.8,645029.94,-316278.44,89.7,Air+FixedWing,Red,Allies,MiG-21Bis,固定翼-1-1,固定翼-1,us
2023-05-12T08:00:24Z,1683878424,101,41.9795859,41.9359804,2000.24,0.2,1.3,95,645217.12,-316275.59,89,Air+FixedWing,Red,Allies,MiG-21Bis,固定翼-1-1,固定翼-1,us
2023-05-12T08:00:25Z,1683878425,101,41.9818658,41.9358308,2000.33,-0.3,1.2,95.1,645408.12,-316272.25,89,Air+FixedWing,Red,Allies,MiG-21Bis,固定翼-1-1,固定翼-1,us
2023-05-12T08:00:26Z,1683878426,101,41.9842288,41.9356753,2000.38,0,1,95.1,645606.06,-316268.81,89,Air+FixedWing,Red,Allies,MiG-21Bis,固定翼-1-1,固定翼-1,us
2023-05-12T08:00:27Z,1683878427,101,41.9866807,41.9355139,2000.41,0,0.9,95.1,645811.5,-316265.25,89,Air+FixedWing,Red,Allies,MiG-21Bis,固定翼-1-1,固定翼-1,us
2023-05-12T08:00:28Z,1683878428,101,41.9891801,41.9353493,2000.42,-0.8,0.8,95.1,646020.88,-316261.62,89,Air+FixedWing,Red,Allies,MiG-21Bis,固定翼-1-1,固定翼-1,us
2023-05-12T08:00:29Z,1683878429,101,41.991697,41.9351849,2000.42,0,0.8,95,646231.75,-316257.78,88.9,Air+FixedWing,Red,Allies,MiG-21Bis,固定翼-1-1,固定翼-1,us
2023-05-12T08:00:30Z,1683878430,101,41.9942605,41.9350172,2000.41,3.5,0.7,95.1,646446.5,-316253.94,89,Air+FixedWing,Red,Allies,MiG-21Bis,固定翼-1-1,固定翼-1,us
2023-05-12T08:00:31Z,1683878431,101,41.9968737,41.9348404,2000.4,5.3,0.6,95.4,646665.5,-316250.62,89.3,Air+FixedWing,Red,Allies,MiG-21Bis,固定翼-1-1,固定翼-1,us
2023-05-12T08:00:32Z,1683878432,101,41.9995385,41.9346523,2000.4,5.4,0.6,95.6,646888.94,-316248.16,89.5,Air+FixedWing,Red,Allies,MiG-21Bis,固定翼-1-1,固定翼-1,us
2023-05-12T08:00:33Z,1683878433,101,42.0022843,41.9344499,2000.39,5.2,0.5,95.8,647119.19,-316246.5,89.7,Air+FixedWing,Red,Allies,MiG-21Bis,固定翼-1-1,固定翼-1,us
2023-05-12T08:00:34Z,1683878434,101,42.0050718,41.9342363,2000.38,5.9,0.4,96,647353.06,-316245.78,89.9,Air+FixedWing,Red,Allies,MiG-21Bis,固定翼-1-1,固定翼-1,us
2023-05-12T08:00:35Z,1683878435,101,42.0079377,41.9340075,2000.37,5.7,0.3,96.2,647593.69,-316245.97,90.1,Air+FixedWing,Red,Allies,MiG-21Bis,固定翼-1-1,固定翼-1,us
2023-05-12T08:00:36Z,1683878436,101,42.010867,41.9337649,2000.36,5.2,0.2,96.5,647839.69,-316247.19,90.4,Air+FixedWing,Red,Allies,MiG-21Bis,固定翼-1-1,固定翼-1,us
2023-05-12T08:00:37Z,1683878437,101,42.0138727,41.9335076,2000.35,5,0.2,96.7,648092.25,-316249.38,90.6,Air+FixedWing,Red,Allies,MiG-21Bis,固定翼-1-1,固定翼-1,us
2023-05-12T08:00:38Z,1683878438,101,42.0169634,41.9332344,2000.34,6.8,0.1,97,648352.06,-316252.53,90.8,Air+FixedWing,Red,Allies,MiG-21Bis,固定翼-1-1,固定翼-1,us
2023-05-12T08:00:39Z,1683878439,101,42.0201089,41.9329459,2000.34,6.9,0,97.2,648616.5,-316256.91,91.1,Air+FixedWing,Red,Allies,MiG-21Bis,固定翼-1-1,固定翼-1,us
2023-05-12T08:00:40Z,1683878440,101,42.0233039,41.932642,2000.33,6.3,0,97.4,648885.38,-316262.53,91.3,Air+FixedWing,Red,Allies,MiG-21Bis,固定翼-1-1,固定翼-1,us
2023-05-12T08:00:41Z,1683878441,101,42.0265761,41.9323273,2000.38,1.8,-0.1,97.2,649160.69,-316268.69,91.1,Air+FixedWing,Red,Allies,MiG-21Bis,固定翼-1-1,固定翼-1,us
2023-05-12T08:00:42Z,1683878442,101,42.0299496,41.9320131,2000.49,1.4,-0.1,97.2,649444.44,-316273.91,91,Air+FixedWing,Red,Allies,MiG-21Bis,固定翼-1-1,固定翼-1,us
2023-05-12T08:00:43Z,1683878443,101,42.0333343,41.9316974,2000.58,-0.1,-0.2,97.2,649729.12,-316279.12,91.1,Air+FixedWing,Red,Allies,MiG-21Bis,固定翼-1-1,固定翼-1,us
2023-05-12T08:00:44Z,1683878444,101,42.0368176,41.9313741,2000.62,-5.4,-0.3,97.1,650022.12,-316284.34,91,Air+FixedWing,Red,Allies,MiG-21Bis,固定翼-1-1,固定翼-1,us
2023-05-12T08:00:45Z,1683878445,101,42.0403464,41.9310541,2000.64,-7.8,-0.3,96.9,650318.81,-316288.81,90.8,Air+FixedWing,Red,Allies,MiG-21Bis,固定翼-1-1,固定翼-1,us
2023-05-12T08:00:46Z,1683878446,101,42.0439572,41.9307385,2000.66,-9.3,-0.3,96.6,650622.31,-316292,90.4,Air+FixedWing,Red,Allies,MiG-21Bis,固定翼-1-1,固定翼-1,us
2023-05-12T08:00:47Z,1683878447,101,42.0476165,41.9304331,2000.66,-9.5,-0.4,96.3,650929.69,-316293.62,90.2,Air+FixedWing,Red,Allies,MiG-21Bis,固定翼-1-1,固定翼-1,us
2023-05-12T08:00:48Z,1683878448,101,42.0513446,41.9301367,2000.66,-8.9,-0.4,96,651242.69,-316293.62,89.9,Air+FixedWing,Red,Allies,MiG-21Bis,固定翼-1-1,固定翼-1,us
2023-05-12T08:00:49Z,1683878449,101,42.0551098,41.9298511,2000.65,-8.4,-0.4,95.7,651558.62,-316292.09,89.6,Air+FixedWing,Red,Allies,MiG-21Bis,固定翼-1-1,固定翼-1,us
2023-05-12T08:00:50Z,1683878450,101,42.0589243,41.9295751,2000.63,-8.9,-0.5,95.4,651878.56,-316289.06,89.3,Air+FixedWing,Red,Allies,MiG-21Bis,固定翼-1-1,固定翼-1,us
2023-05-12T08:00:51Z,1683878451,101,42.0627758,41.9293099,2000.62,-8.2,-0.5,95.2,652201.44,-316284.47,89.1,Air+FixedWing,Red,Allies,MiG-21Bis,固定翼-1-1,固定翼-1,us
2023-05-12T08:00:52Z,1683878452,101,42.066669,41.9290542,2000.6,-7.2,-0.5,95,652527.69,-316278.44,88.8,Air+FixedWing,Red,Allies,MiG-21Bis,固定翼-1-1,固定翼-1,us
2023-05-12T08:00:53Z,1683878453,101,42.0706393,41.9288051,2000.58,-10.5,-0.5,94.7,652860.25,-316271,88.6,Air+FixedWing,Red,Allies,MiG-21Bis,固定翼-1-1,固定翼-1,us
2023-05-12T08:00:54Z,1683878454,101,42.0746044,41.9285715,2000.57,-11.7,-0.6,94.4,653192.19,-316261.81,88.3,Air+FixedWing,Red,Allies,MiG-21Bis,固定翼-1-1,固定翼-1,us
2023-05-12T08:00:55Z,1683878455,101,42.0786248,41.9283528,2000.57,-11.8,-0.6,94.1,653528.56,-316250.5,87.9,Air+FixedWing,Red,Allies,MiG-21Bis,固定翼-1-1,固定翼-1,us
2023-05-12T08:00:56Z,1683878456,101,42.0827061,41.9281491,2000.56,-10.4,-0.6,93.7,653869.75,-316236.97,87.6,Air+FixedWing,Red,Allies,MiG-21Bis,固定翼-1-1,固定翼-1,us
2023-05-12T08:00:57Z,1683878457,101,42.0868043,41.9279674,2000.42,-4.5,-0.7,93.3,654212.12,-316220.81,87.1,Air+FixedWing,Red,Allies,MiG-21Bis,固定翼-1-1,固定翼-1,us
2023-05-12T08:00:58Z,1683878458,101,42.0909254,41.9277955,2000.24,2.4,-0.7,93.2,654556.31,-316203.34,87.1,Air+FixedWing,Red,Allies,MiG-21Bis,固定翼-1-1,固定翼-1,us
2023-05-12T08:00:59Z,1683878459,101,42.0950607,41.9276201,2000.1,7.1,-0.7,93.4,654901.69,-316186.12,87.2,Air+FixedWing,Red,Allies,MiG-21Bis,固定翼-1-1,固定翼-1,us
2023-05-12T08:01:00Z,1683878460,101,42.0992525,41.927431,2000.01,8.4,-0.7,93.7,655252,-316169.91,87.5,Air+FixedWing,Red,Allies,MiG-21Bis,固定翼-1-1,固定翼-1,us
2023-05-12T08:01:01Z,1683878461,101,42.1034555,41.9272294,1999.98,4.5,-0.7,93.8,655603.31,-316154.97,87.6,Air+FixedWing,Red,Allies,MiG-21Bis,固定翼-1-1,固定翼-1,us
2023-05-12T08:01:02Z,1683878462,101,42.1076144,41.9270226,1999.95,2.8,-0.7,93.9,655951.06,-316141,87.7,Air+FixedWing,Red,Allies,MiG-21Bis,固定翼-1-1,固定翼-1,us
2023-05-12T08:01:03Z,1683878463,101,42.1117926,41.92681,1999.93,1.8,-0.7,94,656300.44,-316127.44,87.8,Air+FixedWing,Red,Allies,MiG-21Bis,固定翼-1-1,固定翼-1,us
2023-05-12T08:01:04Z,1683878464,101,42.1159789,41.9265941,1999.93,1.5,-0.7,94,656650.56,-316114.22,87.8,Air+FixedWing,Red,Allies,MiG-21Bis,固定翼-1-1,固定翼-1,us
2023-05-12T08:01:05Z,1683878465,101,42.1200927,41.9263794,1999.93,1.3,-0.7,94.1,656994.69,-316101.44,87.9,Air+FixedWing,Red,Allies,MiG-21Bis,固定翼-1-1,固定翼-1,us
2023-05-12T08:01:06Z,1683878466,101,42.1241572,41.9261651,1999.93,1.2,-0.6,94.1,657334.69,-316089.06,87.9,Air+FixedWing,Red,Allies,MiG-21Bis,固定翼-1-1,固定翼-1,us
2023-05-12T08:01:07Z,1683878467,101,42.1281295,41.9259537,1999.94,1.1,-0.5,94.2,657666.94,-316077.16,88,Air+FixedWing,Red,Allies,MiG-21Bis,固定翼-1-1,固定翼-1,us
2023-05-12T08:01:08Z,1683878468,101,42.1320271,41.9257441,1999.94,3.1,-0.5,94.2,657993.06,-316065.72,88,Air+FixedWing,Red,Allies,MiG-21Bis,固定翼-1-1,固定翼-1,us
2023-05-12T08:01:09Z,1683878469,101,42.1358546,41.9255336,1999.95,3.5,-0.5,94.3,658313.38,-316054.97,88.1,Air+FixedWing,Red,Allies,MiG-21Bis,固定翼-1-1,固定翼-1,us
2023-05-12T08:01:10Z,1683878470,101,42.1396058,41.9253221,1999.96,3.4,-0.4,94.4,658627.31,-316045.03,88.2,Air+FixedWing,Red,Allies,MiG-21Bis,固定翼-1-1,固定翼-1,us
2023-05-12T08:01:11Z,1683878471,101,42.1432872,41.9251092,1999.97,3,-0.4,94.5,658935.5,-316035.81,88.3,Air+FixedWing,Red,Allies,MiG-21Bis,固定翼-1-1,固定翼-1,us
2023-05-12T08:01:12Z,1683878472,101,42.1469225,41.9248952,1999.98,-2.3,-0.3,94.6,659239.88,-316027.16,88.4,Air+FixedWing,Red,Allies,MiG-21Bis,固定翼-1-1,固定翼-1,us
2023-05-12T08:01:13Z,1683878473,101,42.1504831,41.9246878,1999.98,-3.9,-0.3,94.5,659538,-316018.41,88.3,Air+FixedWing,Red,Allies,MiG-21Bis,固定翼-1-1,固定翼-1,us
2023-05-12T08:01:14Z,1683878474,101,42.1539801,41.9244899,1999.99,-4.6,-0.2,94.3,659830.69,-316009.16,88.1,Air+FixedWing,Red,Allies,MiG-21Bis,固定翼-1-1,固定翼-1,us
2023-05-12T08:01:15Z,1683878475,101,42.1573453,41.9243061,1999.99,-4.5,-0.1,94.2,660112.31,-315999.5,88,Air+FixedWing,Red,Allies,MiG-21Bis,固定翼-1-1,固定翼-1,us
2023-05-12T08:01:16Z,1683878476,101,42.1605843,41.9241364,1999.99,-2.1,0,94,660383.25,-315989.41,87.8,Air+FixedWing,Red,Allies,MiG-21Bis,固定翼-1-1,固定翼-1,us
2023-05-12T08:01:17Z,1683878477,101,42.1636987,41.9239783,1999.97,-1.3,0.1,93.9,660643.69,-315979.09,87.7,Air+FixedWing,Red,Allies,MiG-21Bis,固定翼-1-1,固定翼-1,us
2023-05-12T08:01:18Z,1683878478,101,42.1667269,41.9238247,1999.97,-0.4,0.2,93.9,660896.94,-315969.06,87.7,Air+FixedWing,Red,Allies,MiG-21Bis,固定翼-1-1,固定翼-1,us
2023-05-12T08:01:19Z,1683878479,101,42.1696199,41.923678,1999.96,0.1,0.3,93.9,661138.94,-315959.47,87.7,Air+FixedWing,Red,Allies,MiG-21Bis,固定翼-1-1,固定翼-1,us
2023-05-12T08:01:20Z,1683878480,101,42.1724561,41.9235338,1999.96,0.9,0.4,94,661376.12,-315950.12,87.8,Air+FixedWing,Red,Allies,MiG-21Bis,固定翼-1-1,固定翼-1,us
2023-05-12T08:01:21Z,1683878481,101,42.175277,41.9233893,1999.97,-0.1,0.4,94,661612.06,-315940.91,87.8,Air+FixedWing,Red,Allies,MiG-21Bis,固定翼-1-1,固定翼-1,us
2023-05-12T08:01:22Z,1683878482,101,42.1780827,41.9232454,1999.97,-0.5,0.4,94,661846.69,-315931.75,87.8,Air+FixedWing,Red,Allies,MiG-21Bis,固定翼-1-1,固定翼-1,us
2023-05-12T08:01:23Z,1683878483,101,42.1808662,41.9231034,1999.97,-0.7,0.4,94,662079.56,-315922.59,87.7,Air+FixedWing,Red,Allies,MiG-21Bis,固定翼-1-1,固定翼-1,us
2023-05-12T08:01:24Z,1683878484,101,42.1836543,41.9229622,1999.98,-0.7,0.4,93.9,662312.75,-315913.28,87.7,Air+FixedWing,Red,Allies,MiG-21Bis,固定翼-1-1,固定翼-1,us
2023-05-12T08:01:25Z,1683878485,101,42.1864099,41.9228211,1999.98,1.2,0.5,94.1,662543.19,-315904.22,87.9,Air+FixedWing,Red,Allies,MiG-21Bis,固定翼-1-1,固定翼-1,us
2023-05-12T08:01:26Z,1683878486,101,42.1891319,41.9226743,1999.98,0,0.5,94.2,662771,-315896.16,88,Air+FixedWing,Red,Allies,MiG-21Bis,固定翼-1-1,固定翼-1,us
2023-05-12T08:01:27Z,1683878487,101,42.1918339,41.9225282,1999.98,0.2,0.5,94.2,662997.06,-315888.16,88,Air+FixedWing,Red,Allies,MiG-21Bis,固定翼-1-1,固定翼-1,us
2023-05-12T08:01:28Z,1683878488,101,42.1945264,41.9223826,1999.98,0.1,0.6,94.2,663222.38,-315880.12,88,Air+FixedWing,Red,Allies,MiG-21Bis,固定翼-1-1,固定翼-1,us
2023-05-12T08:01:29Z,1683878489,101,42.1971677,41.9222398,1999.98,0,0.6,94.2,663443.38,-315872.28,88,Air+FixedWing,Red,Allies,MiG-21Bis,固定翼-1-1,固定翼-1,us
2023-05-12T08:01:30Z,1683878490,101,42.1997915,41.9220977,1999.98,0.5,0.7,94.2,663663,-315864.53,88,Air+FixedWing,Red,Allies,MiG-21Bis,固定翼-1-1,固定翼-1,us
2023-05-12T08:01:31Z,1683878491,101,42.2023354,41.9219592,1999.98,0.5,0.8,94.2,663875.88,-315857.06,88,Air+FixedWing,Red,Allies,MiG-21Bis,固定翼-1-1,固定翼-1,us
2023-05-12T08:01:32Z,1683878492,101,42.2048011,41.9218242,1999.98,0.5,0.9,94.3,664082.19,-315849.91,88,Air+FixedWing,Red,Allies,MiG-21Bis,固定翼-1-1,固定翼-1,us
2023-05-12T08:01:33Z,1683878493,101,42.2071986,41.9216922,1999.99,0.4,1,94.3,664282.88,-315843.03,88,Air+FixedWing,Red,Allies,MiG-21Bis,固定翼-1-1,固定翼-1,us
2023-05-12T08:01:34Z,1683878494,101,42.2095443,41.9215624,1999.99,0.4,1.1,94.3,664479.19,-315836.34,88.1,Air+FixedWing,Red,Allies,MiG-21Bis,固定翼-1-1,固定翼-1,us
2023-05-12T08:01:35Z,1683878495,101,42.2118233,41.9214357,1999.99,0.3,1.3,94.3,664669.88,-315829.94,88.1,Air+FixedWing,Red,Allies,MiG-21Bis,固定翼-1-1,固定翼-1,us
2023-05-12T08:01:36Z,1683878496,101,42.2140267,41.9213127,1999.99,0.2,1.4,94.3,664854.38,-315823.81,88.1,Air+FixedWing,Red,Allies,MiG-21Bis,固定翼-1-1,固定翼-1,us
2023-05-12T08:01:37Z,1683878497,101,42.2161855,41.921191,1999.99,1.5,1.5,94.4,665035.06,-315817.91,88.2,Air+FixedWing,Red,Allies,MiG-21Bis,固定翼-1-1,固定翼-1,us
2023-05-12T08:01:38Z,1683878498,101,42.2182971,41.9210709,2000,0.4,1.6,94.4,665211.81,-315812.22,88.2,Air+FixedWing,Red,Allies,MiG-21Bis,固定翼-1-1,固定翼-1,us
2023-05-12T08:01:39Z,1683878499,101,42.2203515,41.9209541,2000,0.1,1.8,94.4,665383.81,-315806.72,88.2,Air+FixedWing,Red,Allies,MiG-21Bis,固定翼-1-1,固定翼-1,us
2023-05-12T08:01:40Z,1683878500,101,42.222366,41.9208394,2000,0.1,1.9,94.4,665552.5,-315801.34,88.2,Air+FixedWing,Red,Allies,MiG-21Bis,固定翼-1-1,固定翼-1,us
2023-05-12T08:01:41Z,1683878501,101,42.2243265,41.9207278,2000,0,2,94.4,665716.56,-315796.06,88.2,Air+FixedWing,Red,Allies,MiG-21Bis,固定翼-1-1,固定翼-1,us
2023-05-12T08:01:42Z,1683878502,101,42.2262524,41.9206181,2000,0,2.2,94.4,665877.81,-315790.94,88.2,Air+FixedWing,Red,Allies,MiG-21Bis,固定翼-1-1,固定翼-1,us
2023-05-12T08:01:43Z,1683878503,101,42.2281265,41.9205114,2000,0,2.3,94.4,666034.75,-315785.91,88.2,Air+FixedWing,Red,Allies,MiG-21Bis,固定翼-1-1,固定翼-1,us
2023-05-12T08:01:44Z,1683878504,101,42.2299614,41.9204068,2000,0.1,2.5,94.4,666188.38,-315781,88.2,Air+FixedWing,Red,Allies,MiG-21Bis,固定翼-1-1,固定翼-1,us
2023-05-12T08:01:45Z,1683878505,101,42.2317628,41.9203037,2000,0.9,2.6,94.5,666339.19,-315776.19,88.2,Air+FixedWing,Red,Allies,MiG-21Bis,固定翼-1-1,固定翼-1,us
2023-05-12T08:01:46Z,1683878506,101,42.2335252,41.9202017,2000,1.1,2.8,94.5,666486.69,-315771.66,88.3,Air+FixedWing,Red,Allies,MiG-21Bis,固定翼-1-1,固定翼-1,us
2023-05-12T08:01:47Z,1683878507,101,42.2352365,41.9201008,2000,1.1,2.9,94.6,666630.06,-315767.44,88.4,Air+FixedWing,Red,Allies,MiG-21Bis,固定翼-1-1,固定翼-1,us
2023-05-12T08:01:48Z,1683878508,101,42.2369272,41.9199995,2000,1,3.1,94.7,666771.62,-315763.47,88.4,Air+FixedWing,Red,Allies,MiG-21Bis,固定翼-1-1,固定翼-1,us
2023-05-12T08:01:49Z,1683878509,101,42.2385746,41.9198992,2000,0.9,3.2,94.7,666909.69,-315759.72,88.5,Air+FixedWing,Red,Allies,MiG-21Bis,固定翼-1-1,固定翼-1,us
2023-05-12T08:01:50Z,1683878510,101,42.2401954,41.9197993,2000,0.7,3.4,94.8,667045.44,-315756.22,88.5,Air+FixedWing,Red,Allies,MiG-21Bis,固定翼-1-1,固定翼-1,us
2023-05-12T08:01:51Z,1683878511,101,42.2417826,41.9197003,2000,0.6,3.6,94.9,667178.44,-315752.88,88.6,Air+FixedWing,Red,Allies,MiG-21Bis,固定翼-1-1,固定翼-1,us
2023-05-12T08:01:52Z,1683878512,101,42.2433335,41.9196026,2000,0.5,3.8,94.9,667308.44,-315749.75,88.6,Air+FixedWing,Red,Allies,MiG-21Bis,固定翼-1-1,固定翼-1,us
2023-05-12T08:01:53Z,1683878513,101,42.2448529,41.9195063,2000,0.3,4,94.9,667435.69,-315746.75,88.7,Air+FixedWing,Red,Allies,MiG-21Bis,固定翼-1-1,固定翼-1,us
2023-05-12T08:01:54Z,1683878514,101,42.2463455,41.919411,2000,0.3,4.2,95,667560.81,-315743.84,88.7,Air+FixedWing,Red,Allies,MiG-21Bis,固定翼-1-1,固定翼-1,us
2023-05-12T08:01:55Z,1683878515,101,42.2478039,41.9193176,2000,0.2,4.4,95,667683.06,-315741.06,88.7,Air+FixedWing,Red,Allies,MiG-21Bis,固定翼-1-1,固定翼-1,us
2023-05-12T08:01:56Z,1683878516,101,42.2492459,41.9192199,2000.15,32,7.3,96.2,667803.94,-315738.91,89.9,Air+FixedWing,Red,Allies,MiG-21Bis,固定翼-1-1,固定翼-1,us
2023-05-12T08:01:57Z,1683878517,101,42.2506727,41.9190688,2001.53,43.2,8,100.2,667924.25,-315742.81,94,Air+FixedWing,Red,Allies,MiG-21Bis,固定翼-1-1,固定翼-1,us
2023-05-12T08:01:58Z,1683878518,101,42.2521059,41.9188237,2003.87,51.7,8.8,105.9,668046.25,-315757.09,99.6,Air+FixedWing,Red,Allies,MiG-21Bis,固定翼-1-1,固定翼-1,us