ISO time,Unix time,Id,Longitude,Latitude,Altitude,Roll,Pitch,Yaw,U,V,Heading
2016-06-21T04:00:01Z,1466481601,101,41.5679755,46.4007588,1997.91,0,0.4,104.6,558990.25,176247.98,98.3
2016-06-21T04:00:02Z,1466481602,101,41.5706931,46.4002722,1996.96,2.1,0.6,104.6,559204.94,176216.73,98.3
2016-06-21T04:00:03Z,1466481603,101,41.5733352,46.3997958,1996.24,3.9,0.8,104.7,559413.69,176185.98,98.5
2016-06-21T04:00:04Z,1466481604,101,41.5759049,46.399326,1995.89,4.6,1.1,105,559616.81,176155.38,98.7
2016-06-21T04:00:05Z,1466481605,101,41.5783912,46.3988589,1995.91,31.6,1.7,105.8,559813.5,176124.38,99.5
2016-06-21T04:00:06Z,1466481606,101,41.5807971,46.398357,1996.29,38,2.1,107.9,560004.44,176088.81,101.7
2016-06-21T04:00:07Z,1466481607,101,41.5831518,46.3977936,1996.91,39,2.2,110.3,560192.19,176046.02,104.1
2016-06-21T04:00:08Z,1466481608,101,41.5854888,46.3971578,1997.57,35.6,1.9,112.5,560379.44,175995.06,106.3
2016-06-21T04:00:09Z,1466481609,101,41.5877898,46.3964647,1998.12,38.6,2,114.6,560564.69,175937.42,108.3
2016-06-21T04:00:10Z,1466481610,101,41.5900587,46.3957049,1998.64,41.8,2.2,117.2,560748.19,175872.11,110.9
2016-06-21T04:00:11Z,1466481611,101,41.5922694,46.3948777,1999.13,39.3,2,119.7,560928.12,175798.83,113.4
2016-06-21T04:00:12Z,1466481612,101,41.5944267,46.3939912,1999.47,33.3,1.7,121.8,561104.62,175718.52,115.5
2016-06-21T04:00:13Z,1466481613,101,41.5965459,46.3930544,1999.59,27.7,1.5,123.4,561278.88,175632.31,117.1
2016-06-21T04:00:14Z,1466481614,101,41.5986156,46.3920716,1999.67,58.1,3.7,126.3,561449.88,175540.59,120
2016-06-21T04:00:15Z,1466481615,101,41.6005829,46.390975,2000.2,65.7,5.1,131.8,561614.38,175435.38,125.5
2016-06-21T04:00:16Z,1466481616,101,41.6023498,46.3897515,2001,56.4,3.1,137.7,561765,175314.38,131.4
2016-06-21T04:00:17Z,1466481617,101,41.6039811,46.3884337,2001.3,42.2,1.7,140.9,561906.38,175181.77,134.6
2016-06-21T04:00:18Z,1466481618,101,41.6055474,46.3870614,2000.8,10,0.8,142.2,562043.44,175042.58,135.9
2016-06-21T04:00:19Z,1466481619,101,41.6071214,46.3857183,2000.16,0.3,1,140,562180.75,174906.67,133.6
2016-06-21T04:00:20Z,1466481620,101,41.608753,46.3843814,1999.67,1.1,1.1,139.9,562322.38,174771.94,133.6
2016-06-21T04:00:21Z,1466481621,101,41.6103712,46.3830527,1999.29,0.5,1.1,139.9,562462.94,174638.03,133.6
2016-06-21T04:00:22Z,1466481622,101,41.611991,46.3817223,1999.05,0.1,1.2,139.9,562603.56,174503.95,133.6
2016-06-21T04:00:23Z,1466481623,101,41.6136108,46.3803921,1998.95,-1.5,1.2,139.9,562744.25,174369.86,133.6
2016-06-21T04:00:24Z,1466481624,101,41.6152258,46.3790667,1998.96,3.4,1.2,140,562884.56,174236.3,133.6
2016-06-21T04:00:25Z,1466481625,101,41.6168452,46.3777316,1999.03,4.3,1.2,140.1,563025.25,174101.69,133.8
2016-06-21T04:00:26Z,1466481626,101,41.6184534,46.3763952,1999.13,4.9,1.2,140.4,563165.19,173966.84,134.1
2016-06-21T04:00:27Z,1466481627,101,41.6200536,46.3750536,1999.26,4.8,1.2,140.6,563304.5,173831.38,134.3
2016-06-21T04:00:28Z,1466481628,101,41.6216491,46.3737043,1999.38,4.3,1.2,140.9,563443.56,173694.98,134.6
2016-06-21T04:00:29Z,1466481629,101,41.6232354,46.3723523,1999.49,3.7,1.2,141.1,563582,173558.23,134.7
2016-06-21T04:00:30Z,1466481630,101,41.6248182,46.3709942,1999.58,3.1,1.2,141.2,563720.19,173420.77,134.9
2016-06-21T04:00:31Z,1466481631,101,41.6263835,46.3696436,1999.67,6,1.2,141.4,563857,173284,135.1
2016-06-21T04:00:32Z,1466481632,101,41.6279464,46.368276,1999.75,17.3,1.3,142.1,563993.81,173145.33,135.7
2016-06-21T04:00:33Z,1466481633,101,41.6294782,46.3668926,1999.86,20.3,1.4,143.1,564128.44,173004.62,136.8
2016-06-21T04:00:34Z,1466481634,101,41.6309752,46.3654886,1999.98,19.6,1.4,144.1,564260.69,172861.38,137.8
2016-06-21T04:00:35Z,1466481635,101,41.6324326,46.3640695,2000.07,17.7,1.3,145.1,564390,172716.08,138.8
2016-06-21T04:00:36Z,1466481636,101,41.6338497,46.3626411,2000.11,20,1.4,146,564516.38,172569.44,139.7
2016-06-21T04:00:37Z,1466481637,101,41.6352327,46.3611841,2000.19,32.3,1.7,147.6,564640.5,172419.33,141.3
2016-06-21T04:00:38Z,1466481638,101,41.636543,46.3597049,2000.35,33.9,1.7,149.5,564759.31,172266.14,143.2
2016-06-21T04:00:39Z,1466481639,101,41.6377854,46.3581928,2000.51,30.7,1.6,151.3,564873.25,172108.73,145
2016-06-21T04:00:40Z,1466481640,101,41.6389622,46.3566551,2000.59,26.5,1.4,152.9,564982.56,171947.91,146.5
2016-06-21T04:00:41Z,1466481641,101,41.640084,46.3550967,2000.57,21.8,1.3,154.2,565087.81,171784.34,147.9
2016-06-21T04:00:42Z,1466481642,101,41.6411613,46.3535214,2000.46,20.3,1.3,155.3,565189.88,171618.52,148.9
2016-06-21T04:00:43Z,1466481643,101,41.6421897,46.3519312,2000.38,32.4,1.7,156.8,565288.38,171450.61,150.5
2016-06-21T04:00:44Z,1466481644,101,41.6431436,46.3503227,2000.41,32.8,1.7,158.7,565381.38,171280.06,152.3
2016-06-21T04:00:45Z,1466481645,101,41.6440214,46.3486978,2000.46,29.4,1.6,160.4,565468.75,171107.05,154
2016-06-21T04:00:46Z,1466481646,101,41.6448358,46.34705,2000.47,25,1.4,161.9,565551.44,170930.95,155.6
2016-06-21T04:00:47Z,1466481647,101,41.6455971,46.3453822,2000.4,20.3,1.3,163.1,565630.38,170752.2,156.8
2016-06-21T04:00:48Z,1466481648,101,41.6463104,46.343711,2000.27,15.9,1.2,164,565705.69,170572.64,157.7
2016-06-21T04:00:49Z,1466481649,101,41.6469846,46.3420441,2000.12,12,1.2,164.7,565777.88,170393.22,158.4
2016-06-21T04:00:50Z,1466481650,101,41.6476389,46.3403565,1999.98,10.1,1.2,165.2,565848.81,170211.38,158.9
2016-06-21T04:00:51Z,1466481651,101,41.6482595,46.3386676,1999.91,35.5,1.8,166.6,565917.19,170029.06,160.3
2016-06-21T04:00:52Z,1466481652,101,41.6487961,46.3369735,2000.05,39.3,2,168.8,565979.19,169845.48,162.5
2016-06-21T04:00:53Z,1466481653,101,41.649234,46.3352637,2000.29,37.6,1.9,171.1,566033.75,169659.31,164.8
2016-06-21T04:00:54Z,1466481654,101,41.6495775,46.3335365,2000.49,33.2,1.7,173.2,566081.31,169470.42,166.9
2016-06-21T04:00:55Z,1466481655,101,41.6498385,46.3318136,2000.54,27.4,1.4,174.9,566122.38,169281.3,168.5
2016-06-21T04:00:56Z,1466481656,101,41.6500373,46.3300638,2000.44,21.5,1.3,176.1,566159.06,169088.67,169.8
2016-06-21T04:00:57Z,1466481657,101,41.650184,46.3283345,2000.26,16.5,1.2,177.1,566191.5,168897.88,170.8
2016-06-21T04:00:58Z,1466481658,101,41.6502943,46.3265902,2000.05,12.2,1.2,177.9,566221.31,168705.11,171.5
2016-06-21T04:00:59Z,1466481659,101,41.6503768,46.3248495,1999.85,8.6,1.2,178.4,566248.94,168512.5,172.1
2016-06-21T04:01:00Z,1466481660,101,41.6504395,46.3231086,1999.71,9.1,1.2,178.8,566275,168319.7,172.5
2016-06-21T04:01:01Z,1466481661,101,41.65047,46.3213788,1999.67,34.9,1.8,180.2,566298.5,168127.88,173.9
2016-06-21T04:01:02Z,1466481662,101,41.650421,46.3196379,1999.82,33.5,1.7,182.1,566316,167934.12,175.8
2016-06-21T04:01:03Z,1466481663,101,41.6502906,46.3179015,1999.98,27.7,1.5,183.9,566327.19,167740.19,177.6
2016-06-21T04:01:04Z,1466481664,101,41.6500928,46.316166,2000.05,21.5,1.3,185.2,566333.19,167545.8,178.9
2016-06-21T04:01:05Z,1466481665,101,41.6498448,46.3144277,1999.99,15.1,1.2,186.1,566335.31,167350.67,179.8
2016-06-21T04:01:06Z,1466481666,101,41.6495647,46.3127046,1999.86,10,1.2,186.8,566334.81,167156.94,180.4
2016-06-21T04:01:07Z,1466481667,101,41.6492511,46.3109782,1999.6,5.2,1.1,187.4,566331.75,166962.58,181.1
2016-06-21T04:01:08Z,1466481668,101,41.6489279,46.3092511,1999.38,2.3,1.2,187.4,566328,166768.05,181.1
2016-06-21T04:01:09Z,1466481669,101,41.6486042,46.3075187,1999.27,-4,1.2,187.4,566324.25,166572.92,181
2016-06-21T04:01:10Z,1466481670,101,41.6482863,46.3058025,1999.24,4.1,1.2,187.4,566320.75,166379.66,181.1
2016-06-21T04:01:11Z,1466481671,101,41.6479573,46.3040718,1999.26,6.1,1.2,187.7,566316.56,166184.67,181.4
2016-06-21T04:01:12Z,1466481672,101,41.6476175,46.3023502,1999.33,6.1,1.2,188,566311.44,165990.62,181.7
2016-06-21T04:01:13Z,1466481673,101,41.6472613,46.3006154,1999.41,5.9,1.2,188.3,566305.19,165794.95,182
2016-06-21T04:01:14Z,1466481674,101,41.6468973,46.2989061,1999.49,5.3,1.2,188.6,566298.06,165602.06,182.3
2016-06-21T04:01:15Z,1466481675,101,41.6465175,46.2971777,1999.58,4.5,1.2,188.8,566289.94,165406.91,182.5
2016-06-21T04:01:16Z,1466481676,101,41.6461303,46.2954617,1999.65,3.7,1.2,189.1,566281.06,165213.06,182.7
2016-06-21T04:01:17Z,1466481677,101,41.6457341,46.2937418,1999.71,3,1.2,189.2,566271.56,165018.72,182.9
2016-06-21T04:01:18Z,1466481678,101,41.6453325,46.2920274,1999.76,2.3,1.2,189.3,566261.56,164824.94,183
2016-06-21T04:01:19Z,1466481679,101,41.6449244,46.2903074,1999.81,2,1.2,189.4,566251.12,164630.48,183.1
2016-06-21T04:01:20Z,1466481680,101,41.6445064,46.2885917,1999.86,22.7,1.5,190,566239.94,164436.41,183.7
2016-06-21T04:01:21Z,1466481681,101,41.6440415,46.2868791,1999.98,27.6,1.5,191.4,566225,164242.3,185.1
2016-06-21T04:01:22Z,1466481682,101,41.6435151,46.285183,2000.16,28.6,1.6,193,566205.19,164049.48,186.7
2016-06-21T04:01:23Z,1466481683,101,41.6429199,46.2834915,2000.31,26.5,1.5,194.5,566180,163856.61,188.2
2016-06-21T04:01:24Z,1466481684,101,41.6422643,46.2818109,2000.41,22.9,1.4,195.8,566150.06,163664.44,189.5
2016-06-21T04:01:25Z,1466481685,101,41.6415574,46.28014,2000.41,19.1,1.3,197,566116,163472.91,190.6
2016-06-21T04:01:26Z,1466481686,101,41.6408125,46.2784854,2000.34,15.4,1.2,197.8,566078.81,163282.86,191.5
2016-06-21T04:01:27Z,1466481687,101,41.640025,46.2768189,2000.24,12.1,1.2,198.6,566038.5,163091.12,192.2
2016-06-21T04:01:28Z,1466481688,101,41.6392208,46.2751786,2000.14,17.9,1.3,199.2,565996.56,162902.17,192.8
2016-06-21T04:01:29Z,1466481689,101,41.6383714,46.2735383,2000.11,27.5,1.5,200.6,565951.19,162712.84,194.3
2016-06-21T04:01:30Z,1466481690,101,41.6374578,46.271911,2000.19,29.6,1.6,202.1,565900.69,162524.41,195.8
2016-06-21T04:01:31Z,1466481691,101,41.636488,46.2703177,2000.29,27,1.5,203.7,565845.38,162339.27,197.4
2016-06-21T04:01:32Z,1466481692,101,41.6354509,46.2687268,2000.34,23.1,1.4,205,565784.88,162153.83,198.7
2016-06-21T04:01:33Z,1466481693,101,41.6343736,46.2671639,2000.32,19,1.3,206.1,565721,161971.17,199.8
2016-06-21T04:01:34Z,1466481694,101,41.6332449,46.2655974,2000.24,15.1,1.2,207,565653.12,161787.67,200.7
2016-06-21T04:01:35Z,1466481695,101,41.6320974,46.2640574,2000.13,11.6,1.2,207.7,565583.5,161606.95,201.4
2016-06-21T04:01:36Z,1466481696,101,41.6309155,46.2625107,2000.02,8.6,1.2,208.2,565511.31,161425.2,201.9
2016-06-21T04:01:37Z,1466481697,101,41.6297258,46.2609821,1999.93,6.1,1.2,208.6,565438.31,161245.41,202.3
2016-06-21T04:01:38Z,1466481698,101,41.6285183,46.2594506,1999.85,10.4,1.2,208.9,565363.94,161065.14,202.6
2016-06-21T04:01:39Z,1466481699,101,41.6272841,46.257941,1999.91,43.3,2.3,210.7,565287.25,160887.06,204.4
2016-06-21T04:01:40Z,1466481700,101,41.6259572,46.2564775,2000.25,50.1,2.7,213.8,565202.88,160713.34,207.5
2016-06-21T04:01:41Z,1466481701,101,41.6244967,46.2550568,2000.74,46.7,2.4,217.2,565107.62,160543.23,210.9
2016-06-21T04:01:42Z,1466481702,101,41.6229378,46.2536991,2001.11,40.3,1.9,219.9,565004.06,160379.31,213.6
2016-06-21T04:01:43Z,1466481703,101,41.6212855,46.2523779,2001.19,32.6,1.5,221.9,564892.81,160218.64,215.6
2016-06-21T04:01:44Z,1466481704,101,41.619584,46.2511012,2001.01,25.5,1.3,223.5,564777.31,160062.5,217.2
2016-06-21T04:01:45Z,1466481705,101,41.6178356,46.2498502,2000.69,19.4,1.2,224.7,564657.81,159908.84,218.4
2016-06-21T04:01:46Z,1466481706,101,41.6160537,46.2486201,2000.33,14.4,1.2,225.6,564535.5,159757.22,219.3
2016-06-21T04:01:47Z,1466481707,101,41.614253,46.247412,2000.02,30.9,1.6,226.6,564411.44,159607.86,220.3
2016-06-21T04:01:48Z,1466481708,101,41.6124006,46.2462392,1999.95,38.7,1.9,228.8,564282.94,159462,222.5
2016-06-21T04:01:49Z,1466481709,101,41.6104901,46.2451265,2000.08,40.2,2,231.3,564149.25,159322.33,225
2016-06-21T04:01:50Z,1466481710,101,41.6085031,46.244065,2000.23,35.7,1.7,233.5,564009.06,159187.7,227.3
2016-06-21T04:01:51Z,1466481711,101,41.606447,46.2430457,2000.28,29.5,1.5,235.4,563863,159057.19,229.1
2016-06-21T04:01:52Z,1466481712,101,41.6043733,46.2420779,2000.19,23.5,1.3,236.8,563715,158932.25,230.5
2016-06-21T04:01:53Z,1466481713,101,41.602271,46.241142,2000,18,1.2,237.9,563564.38,158810.61,231.6
2016-06-21T04:01:54Z,1466481714,101,41.6001328,46.2402243,1999.77,13.3,1.2,238.7,563410.75,158690.7,232.4
2016-06-21T04:01:55Z,1466481715,101,41.5979799,46.2393251,1999.56,9.5,1.2,239.3,563255.75,158572.72,233
2016-06-21T04:01:56Z,1466481716,101,41.5958166,46.2384392,1999.4,18.2,1.4,239.8,563099.75,158456.14,233.5
2016-06-21T04:01:57Z,1466481717,101,41.5936348,46.2375984,2000.18,18,5.1,242.8,562941.88,158344.42,236.5
2016-06-21T04:01:58Z,1466481718,101,41.5914198,46.2367752,2010.56,-36.8,10.1,239.9,562781.19,158234.38,233.6
2016-06-21T04:01:59Z,1466481719,101,41.5893129,46.2358179,2032.7,-62.1,15.2,232.8,562630.38,158110.34,226.6
2016-06-21T04:02:00Z,1466481720,101,41.5874353,46.2346631,2061.72,-66.7,14.9,224.2,562499.69,157966.33,217.9
2016-06-21T04:02:01Z,1466481721,101,41.5857404,46.2333482,2092.15,-41.8,9.7,220.6,562385,157806.05,214.3
2016-06-21T04:02:02Z,1466481722,101,41.5840744,46.231941,2122.52,-24.7,10.6,218.5,562273.62,157635.78,212.2
2016-06-21T04:02:03Z,1466481723,101,41.5824429,46.2304816,2155.86,-9.6,11.1,217.6,562165.56,157460.02,211.3
2016-06-21T04:02:04Z,1466481724,101,41.5807728,46.2289931,2193.15,-2.7,11.5,218.3,562054.88,157280.69,212
2016-06-21T04:02:05Z,1466481725,101,41.5790625,46.2274854,2233.33,-1.3,11.7,218.3,561941.31,157098.89,212
2016-06-21T04:02:06Z,1466481726,101,41.5773117,46.2259411,2275.82,-0.7,11.8,218.2,561825.06,156912.69,212
2016-06-21T04:02:07Z,1466481727,101,41.5755458,46.2243832,2319.45,-0.3,11.9,218.2,561707.75,156724.86,212
2016-06-21T04:02:08Z,1466481728,101,41.5737603,46.2228079,2364.06,-0.1,11.9,218.2,561589.19,156534.92,212
2016-06-21T04:02:09Z,1466481729,101,41.5719827,46.2212394,2408.77,-0.1,12,218.2,561471.12,156345.83,212
2016-06-21T04:02:10Z,1466481730,101,41.5702102,46.2196752,2453.55,0,12,218.2,561353.38,156157.27,212
2016-06-21T04:02:11Z,1466481731,101,41.5684407,46.2181136,2498.35,0,12.1,218.2,561235.88,155969,212
2016-06-21T04:02:12Z,1466481732,101,41.5666861,46.2165651,2542.86,0,12.1,218.2,561119.31,155782.31,212
2016-06-21T04:02:13Z,1466481733,101,41.5649071,46.2149948,2588.03,0,12.1,218.2,561001.12,155593.02,212
2016-06-21T04:02:14Z,1466481734,101,41.5631464,46.2134406,2632.76,0,12.1,218.2,560884.19,155405.66,212
2016-06-21T04:02:15Z,1466481735,101,41.561374,46.2118759,2677.81,0,12.1,218.2,560766.38,155217.05,212
2016-06-21T04:02:16Z,1466481736,101,41.559607,46.2103159,2722.73,0,12.1,218.2,560649,155029,212
2016-06-21T04:02:17Z,1466481737,101,41.5578418,46.2087572,2767.62,0,12.1,218.2,560531.69,154841.11,212
2016-06-21T04:02:18Z,1466481738,101,41.5560714,46.207194,2812.64,0,12.1,218.2,560414.06,154652.69,212
2016-06-21T04:02:19Z,1466481739,101,41.554295,46.2056253,2857.82,0,12.1,218.2,560296,154463.59,212
2016-06-21T04:02:20Z,1466481740,101,41.552538,46.2040736,2902.51,0,12.2,218.2,560179.25,154276.58,212
2016-06-21T04:02:21Z,1466481741,101,41.5507706,46.2025126,2947.48,0,12.2,218.2,560061.81,154088.42,212
2016-06-21T04:02:22Z,1466481742,101,41.5489967,46.2009457,2992.61,0,12.2,218.2,559943.88,153899.56,212
2016-06-21T04:02:23Z,1466481743,101,41.5472237,46.1993794,3037.72,0,12.2,218.2,559826,153710.8,212