ISO time,Unix time,Id,Longitude,Latitude,Altitude,Roll,Pitch,Yaw,U,V,Heading
2016-06-21T04:00:01Z,1466481601,101,41.5668273,46.3996172,1997.91,0,0.4,144.7,558915.88,176111.58,138.4
2016-06-21T04:00:02Z,1466481602,101,41.5684545,46.3980287,1996.96,4.4,0.6,144.7,559060.12,175948.83,138.5
2016-06-21T04:00:03Z,1466481603,101,41.5700124,46.3964873,1996.27,24.7,1.1,145.6,559198.5,175790.7,139.4
2016-06-21T04:00:04Z,1466481604,101,41.5714942,46.3949526,1995.99,29.4,1.4,147.1,559331,175632.72,140.8
2016-06-21T04:00:05Z,1466481605,101,41.5728663,46.3934438,1996.08,27.9,1.6,148.6,559454.69,175476.67,142.3
2016-06-21T04:00:06Z,1466481606,101,41.5741497,46.3919449,1996.35,27.6,1.7,150.2,559571.5,175320.98,143.9
2016-06-21T04:00:07Z,1466481607,101,41.5753495,46.3904338,1996.82,49.4,2.9,152.8,559682,175163.23,146.5
2016-06-21T04:00:08Z,1466481608,101,41.5764217,46.3888824,1997.57,50.4,2.9,156.3,559783.19,174999.97,150
2016-06-21T04:00:09Z,1466481609,101,41.577371,46.3872678,1998.38,44.9,2.3,159.5,559875.75,174828.62,153.2
2016-06-21T04:00:10Z,1466481610,101,41.578207,46.3856165,1998.95,37.8,1.9,162,559960,174652.27,155.7
2016-06-21T04:00:11Z,1466481611,101,41.578944,46.3839594,1999.2,36.1,1.8,164,560036.69,174474.45,157.7
2016-06-21T04:00:12Z,1466481612,101,41.5795956,46.3822817,1999.3,35,1.7,166.1,560107.12,174293.59,159.8
2016-06-21T04:00:13Z,1466481613,101,41.5801628,46.3805826,1999.31,31.3,1.6,168,560171.31,174109.67,161.7
2016-06-21T04:00:14Z,1466481614,101,41.5806555,46.3788725,1999.25,25.8,1.4,169.5,560229.94,173923.92,163.2
2016-06-21T04:00:15Z,1466481615,101,41.5810843,46.3771575,1999.15,37.9,1.9,171.1,560283.75,173737.06,164.8
2016-06-21T04:00:16Z,1466481616,101,41.5814213,46.3754275,1999.23,40.6,2,173.6,560330.62,173547.78,167.3
2016-06-21T04:00:17Z,1466481617,101,41.5816463,46.3736975,1999.41,39.1,1.9,176.1,560368.88,173357.53,169.8
2016-06-21T04:00:18Z,1466481618,101,41.5817703,46.3719615,1999.57,33.6,1.7,178.2,560399.5,173165.81,171.9
2016-06-21T04:00:19Z,1466481619,101,41.5818122,46.3702178,1999.58,29.6,1.5,179.9,560423.88,172972.53,173.6
2016-06-21T04:00:20Z,1466481620,101,41.5817566,46.3684844,1999.68,60,4,183.4,560440.56,172779.56,177.1
2016-06-21T04:00:21Z,1466481621,101,41.5814881,46.3667627,2000.25,68.2,5.9,189.4,560440.81,172586.11,183.1
2016-06-21T04:00:22Z,1466481622,101,41.5809145,46.3650711,2001.19,60,3.7,196.7,560417.25,172393.45,190.4
2016-06-21T04:00:23Z,1466481623,101,41.5801419,46.3634135,2001.28,10.6,0.6,198.5,560378,172202.89,192.2
2016-06-21T04:00:24Z,1466481624,101,41.5793476,46.361777,1999.98,-8.9,0.7,198.5,560336.75,172014.5,192.3
2016-06-21T04:00:25Z,1466481625,101,41.578557,46.3601106,1998.45,-18.3,1,197.8,560296.12,171822.8,191.5
2016-06-21T04:00:26Z,1466481626,101,41.5778191,46.3584615,1997.32,-22,1.2,196.7,560259.44,171633.47,190.4
2016-06-21T04:00:27Z,1466481627,101,41.5771226,46.3567787,1996.67,-22.2,1.4,195.4,560226.25,171440.75,189.1
2016-06-21T04:00:28Z,1466481628,101,41.5764837,46.3551012,1996.42,-19.4,1.4,194.3,560197.5,171249.11,188
2016-06-21T04:00:29Z,1466481629,101,41.5758857,46.3534077,1996.44,-16.4,1.4,193.3,560172,171056.03,187
2016-06-21T04:00:30Z,1466481630,101,41.5753243,46.3517069,1996.64,-6.6,1.3,192.6,560149.44,170862.44,186.3
2016-06-21T04:00:31Z,1466481631,101,41.5747719,46.3500067,1996.92,20.5,1.5,193.2,560127.62,170669,186.9
2016-06-21T04:00:32Z,1466481632,101,41.5741783,46.3483249,1997.31,29.9,1.7,194.5,560102.31,170477.27,188.2
2016-06-21T04:00:33Z,1466481633,101,41.5735124,46.3466419,1997.8,30.8,1.7,196.3,560071.5,170284.78,190
2016-06-21T04:00:34Z,1466481634,101,41.5727799,46.344986,1998.3,31.3,1.7,198,560035.25,170094.75,191.7
2016-06-21T04:00:35Z,1466481635,101,41.5719604,46.3433272,1998.8,37.4,2,200.1,559992.31,169903.66,193.8
2016-06-21T04:00:36Z,1466481636,101,41.571058,46.341704,1999.27,35.4,1.8,202.2,559942.56,169715.84,195.9
2016-06-21T04:00:37Z,1466481637,101,41.5700737,46.3401019,1999.62,32.7,1.7,204,559886.25,169529.66,197.8
2016-06-21T04:00:38Z,1466481638,101,41.5690039,46.3385371,1999.97,58.9,3.9,207.4,559822.88,169346.92,201.2
2016-06-21T04:00:39Z,1466481639,101,41.5677602,46.3370283,2000.64,58.1,3.6,212.1,559745.5,169168.95,205.9
2016-06-21T04:00:40Z,1466481640,101,41.5663505,46.3355919,2001.27,49.8,2.5,216.2,559654.44,168997.61,209.9
2016-06-21T04:00:41Z,1466481641,101,41.5648181,46.3342111,2001.5,40.2,1.8,218.9,559553.31,168831.44,212.6
2016-06-21T04:00:42Z,1466481642,101,41.5632011,46.3328723,2001.27,38.9,1.8,221,559445.12,168669.22,214.7
2016-06-21T04:00:43Z,1466481643,101,41.5615007,46.3316013,2001.11,62.4,4.3,225.4,559329.69,168513.83,219.1
2016-06-21T04:00:44Z,1466481644,101,41.5596245,46.3304439,2001.35,60.7,3.8,231.2,559199.31,168369.58,224.9
2016-06-21T04:00:45Z,1466481645,101,41.5576163,46.3294029,2001.47,45.1,1.9,234.9,559057.44,168237.14,228.6
2016-06-21T04:00:46Z,1466481646,101,41.5555281,46.3284283,2001.02,32.7,1.3,237.1,558908.56,168111.44,230.9
2016-06-21T04:00:47Z,1466481647,101,41.5534048,46.3275011,2000.17,4.3,0.8,238.3,558756.44,167990.7,232
2016-06-21T04:00:48Z,1466481648,101,41.5512718,46.3265848,1999.17,-6.7,1,238.1,558603.44,167871.09,231.9
2016-06-21T04:00:49Z,1466481649,101,41.5491434,46.3256576,1998.37,-14,1.1,237.6,558450.88,167750.33,231.3
2016-06-21T04:00:50Z,1466481650,101,41.5470231,46.3247075,1997.9,-16.2,1.3,236.8,558299.19,167627.08,230.5
2016-06-21T04:00:51Z,1466481651,101,41.5449456,46.3237463,1997.72,-15.5,1.3,235.9,558151,167502.97,229.6
2016-06-21T04:00:52Z,1466481652,101,41.5428716,46.3227566,1997.74,-13.9,1.3,235.1,558003.38,167375.72,228.9
2016-06-21T04:00:53Z,1466481653,101,41.540825,46.3217577,1997.92,-3.7,1.3,235.1,557857.94,167247.67,228.9
2016-06-21T04:00:54Z,1466481654,101,41.5387424,46.3207762,1998.35,-1.6,1.3,236.1,557709.56,167121.28,229.9
2016-06-21T04:00:55Z,1466481655,101,41.5366654,46.3198065,1998.73,-0.3,1.3,236.1,557561.44,166996.25,229.8
2016-06-21T04:00:56Z,1466481656,101,41.5345671,46.318826,1999.05,-0.2,1.2,236.1,557411.81,166869.84,229.8
2016-06-21T04:00:57Z,1466481657,101,41.5324882,46.3178543,1999.3,-0.2,1.2,236,557263.56,166744.58,229.8
2016-06-21T04:00:58Z,1466481658,101,41.5304178,46.3168867,1999.49,0,1.2,236,557115.88,166619.83,229.8
2016-06-21T04:00:59Z,1466481659,101,41.5283275,46.3159096,1999.63,0.1,1.2,236,556966.81,166493.88,229.8
2016-06-21T04:01:00Z,1466481660,101,41.52624,46.3149379,1999.74,23.9,1.5,236.5,556817.88,166368.56,230.3
2016-06-21T04:01:01Z,1466481661,101,41.5241368,46.314,1999.93,33.3,1.7,238.2,556667.38,166246.88,231.9
2016-06-21T04:01:02Z,1466481662,101,41.521978,46.3131067,2000.23,37,1.9,240.3,556512,166129.66,234
2016-06-21T04:01:03Z,1466481663,101,41.5197794,46.3122728,2000.52,34.7,1.7,242.4,556352.81,166018.7,236.1
2016-06-21T04:01:04Z,1466481664,101,41.517529,46.3114873,2000.71,30.1,1.5,244.2,556189.12,165912.73,238
2016-06-21T04:01:05Z,1466481665,101,41.5152558,46.3107498,2000.75,25,1.4,245.7,556023,165811.89,239.5
2016-06-21T04:01:06Z,1466481666,101,41.512966,46.3100513,2000.66,20.2,1.3,246.9,555855.25,165715.25,240.7
2016-06-21T04:01:07Z,1466481667,101,41.5106333,46.3093756,2000.5,16.3,1.2,247.8,555683.88,165620.77,241.6
2016-06-21T04:01:08Z,1466481668,101,41.5082977,46.3087318,2000.36,31.3,1.6,249.1,555511.81,165529.83,242.9
2016-06-21T04:01:09Z,1466481669,101,41.505942,46.3081357,2000.34,32.6,1.7,250.9,555337.69,165444.03,244.7
2016-06-21T04:01:10Z,1466481670,101,41.5035615,46.3075925,2000.41,30.8,1.6,252.7,555161,165363.91,246.5
2016-06-21T04:01:11Z,1466481671,101,41.5011465,46.3070967,2000.45,27,1.4,254.3,554981.12,165288.75,248.1
2016-06-21T04:01:12Z,1466481672,101,41.4987275,46.306646,2000.42,22.3,1.3,255.6,554800.31,165218.58,249.4
2016-06-21T04:01:13Z,1466481673,101,41.4962958,46.3062296,2000.32,17.7,1.3,256.7,554618.19,165152.12,250.5
2016-06-21T04:01:14Z,1466481674,101,41.4938298,46.3058366,2000.17,13.7,1.2,257.5,554433.12,165087.98,251.3
2016-06-21T04:01:15Z,1466481675,101,41.4913888,46.3054696,2000.03,10.2,1.2,258.1,554249.62,165026.94,251.9
2016-06-21T04:01:16Z,1466481676,101,41.4889169,46.3051373,1999.51,6.4,1,259.7,554063.38,164969.48,253.5
2016-06-21T04:01:17Z,1466481677,101,41.4864384,46.3048259,1998.94,2.5,1.1,259.8,553876.38,164914.34,253.5
2016-06-21T04:01:18Z,1466481678,101,41.4839666,46.3045145,1998.59,1.2,1.2,259.7,553689.88,164859.23,253.5
2016-06-21T04:01:19Z,1466481679,101,41.4815044,46.3042044,1998.46,0.6,1.2,259.8,553504.06,164804.36,253.5
2016-06-21T04:01:20Z,1466481680,101,41.4790293,46.3038926,1998.47,0.3,1.2,259.8,553317.31,164749.2,253.5
2016-06-21T04:01:21Z,1466481681,101,41.4765541,46.3035808,1998.58,0.1,1.2,259.7,553130.5,164694.05,253.5
2016-06-21T04:01:22Z,1466481682,101,41.4740824,46.3032692,1998.73,7.1,1.3,259.8,552944,164638.95,253.6
2016-06-21T04:01:23Z,1466481683,101,41.4716158,46.3029699,1998.93,17,1.4,260.5,552757.75,164585.25,254.3
2016-06-21T04:01:24Z,1466481684,101,41.4691372,46.3026967,1999.16,21.1,1.4,261.5,552570.25,164534.39,255.3
2016-06-21T04:01:25Z,1466481685,101,41.4666515,46.302456,1999.4,20.5,1.4,262.6,552381.81,164487.05,256.4
2016-06-21T04:01:26Z,1466481686,101,41.4641536,46.3022465,1999.6,18.4,1.3,263.7,552192.06,164443.11,257.5
2016-06-21T04:01:27Z,1466481687,101,41.4616456,46.3020661,1999.73,16,1.3,264.5,552001.19,164402.28,258.3
2016-06-21T04:01:28Z,1466481688,101,41.4591488,46.3019112,1999.8,13.3,1.2,265.3,551810.81,164364.42,259.1
2016-06-21T04:01:29Z,1466481689,101,41.4566576,46.3017771,1999.83,10.7,1.2,265.9,551620.69,164328.92,259.7
2016-06-21T04:01:30Z,1466481690,101,41.4541381,46.3016601,1999.84,22.9,1.4,266.7,551428.19,164295.08,260.5
2016-06-21T04:01:31Z,1466481691,101,41.4516409,46.3015778,1999.91,25.4,1.5,268,551237,164265.28,261.8
2016-06-21T04:01:32Z,1466481692,101,41.4491324,46.301537,2000.02,24.4,1.4,269.4,551044.38,164240.02,263.2
2016-06-21T04:01:33Z,1466481693,101,41.4466049,46.3015356,2000.1,20.4,1.3,270.6,550849.81,164218.97,264.4
2016-06-21T04:01:34Z,1466481694,101,41.4440968,46.3015666,2000.1,15.6,1.2,271.5,550656.38,164201.69,265.4
2016-06-21T04:01:35Z,1466481695,101,41.4415977,46.3016218,2000.05,11.6,1.2,272.2,550463.38,164187.19,266.1
2016-06-21T04:01:36Z,1466481696,101,41.4390757,46.3017005,1999.88,8,1.1,273.2,550268.38,164175.11,267
2016-06-21T04:01:37Z,1466481697,101,41.4365716,46.3018021,1999.53,-0.6,1.1,273.5,550074.44,164165.7,267.3
2016-06-21T04:01:38Z,1466481698,101,41.4340637,46.3019068,1999.27,6,1.2,273.6,549880.12,164156.62,267.4
2016-06-21T04:01:39Z,1466481699,101,41.4315596,46.3020183,1999.14,6.2,1.2,273.8,549686.06,164148.36,267.7
2016-06-21T04:01:40Z,1466481700,101,41.4290447,46.3021399,1999.1,6.6,1.2,274.2,549491.06,164141.12,268
2016-06-21T04:01:41Z,1466481701,101,41.4265514,46.3022707,1999.14,6.4,1.2,274.5,549297.56,164135.08,268.4
2016-06-21T04:01:42Z,1466481702,101,41.4240389,46.3024123,1999.22,5.6,1.2,274.9,549102.5,164130.11,268.7
2016-06-21T04:01:43Z,1466481703,101,41.4215424,46.3025615,1999.31,4.7,1.2,275.1,548908.62,164126.09,269
2016-06-21T04:01:44Z,1466481704,101,41.4190481,46.3027178,1999.41,3.9,1.2,275.3,548714.75,164122.92,269.2
2016-06-21T04:01:45Z,1466481705,101,41.4165475,46.3028805,1999.5,3.1,1.2,275.5,548520.38,164120.39,269.3
2016-06-21T04:01:46Z,1466481706,101,41.4140396,46.3030486,1999.59,2.4,1.2,275.6,548325.38,164118.41,269.5
2016-06-21T04:01:47Z,1466481707,101,41.4115396,46.3032198,1999.66,1.9,1.2,275.8,548130.88,164116.84,269.6
2016-06-21T04:01:48Z,1466481708,101,41.4090429,46.3033937,1999.72,2.3,1.2,275.8,547936.62,164115.62,269.7
2016-06-21T04:01:49Z,1466481709,101,41.4065392,46.3035721,1999.77,4.4,1.2,276,547741.81,164114.83,269.9
2016-06-21T04:01:50Z,1466481710,101,41.4040462,46.3037562,1999.82,4.8,1.2,276.3,547547.75,164114.78,270.1
2016-06-21T04:01:51Z,1466481711,101,41.4015427,46.3039483,1999.86,4.5,1.2,276.5,547352.81,164115.53,270.3
2016-06-21T04:01:52Z,1466481712,101,41.3990498,46.3041465,1999.89,4,1.2,276.7,547158.62,164117.06,270.5
2016-06-21T04:01:53Z,1466481713,101,41.3965576,46.3043506,1999.92,3.3,1.2,276.9,546964.31,164119.25,270.7
2016-06-21T04:01:54Z,1466481714,101,41.3940671,46.3045596,1999.93,2.7,1.2,277,546770.19,164122,270.9