ISO time,Unix time,Id,Longitude,Latitude,Altitude,Roll,Pitch,Yaw,U,V,Heading
2016-06-21T04:00:01Z,1466481601,101,41.5198896,46.3591003,1997.91,0,0.4,189.6,555797.75,171219.88,183.3
2016-06-21T04:00:02Z,1466481602,101,41.5194204,46.3571598,1996.95,0,0.5,189.6,555785.06,171000.47,183.3
2016-06-21T04:00:03Z,1466481603,101,41.5189475,46.3552037,1996.18,0,0.6,189.6,555772.19,170779.3,183.3
2016-06-21T04:00:04Z,1466481604,101,41.5184727,46.3532399,1995.79,0,0.7,189.6,555759.31,170557.27,183.3
2016-06-21T04:00:05Z,1466481605,101,41.5179989,46.3512803,1995.76,1.6,0.7,189.6,555746.5,170335.7,183.3
2016-06-21T04:00:06Z,1466481606,101,41.5175226,46.3493252,1995.99,3.2,0.8,189.7,555733.38,170114.61,183.4
2016-06-21T04:00:07Z,1466481607,101,41.5170366,46.3473604,1996.37,3.8,0.8,189.8,555719.69,169892.39,183.6
2016-06-21T04:00:08Z,1466481608,101,41.5165438,46.3454023,1996.84,3.7,0.8,190,555705.31,169670.83,183.8
2016-06-21T04:00:09Z,1466481609,101,41.51604,46.3434346,1997.31,9.8,0.8,190.3,555690.25,169448.11,184
2016-06-21T04:00:10Z,1466481610,101,41.5155187,46.3414858,1997.79,17.2,0.9,190.9,555673.62,169227.34,184.7
2016-06-21T04:00:11Z,1466481611,101,41.5149576,46.3395359,1998.25,19.6,0.9,191.7,555653.88,169006.14,185.5
2016-06-21T04:00:12Z,1466481612,101,41.514354,46.3375936,1998.67,18.6,0.8,192.7,555630.88,168785.41,186.4
2016-06-21T04:00:13Z,1466481613,101,41.5137087,46.3356551,1999.01,16.6,0.8,193.4,555604.5,168564.77,187.2
2016-06-21T04:00:14Z,1466481614,101,41.5130254,46.333718,1999.27,14.1,0.7,194.1,555575.31,168343.95,187.9
2016-06-21T04:00:15Z,1466481615,101,41.512314,46.3317936,1999.43,15.4,0.7,194.7,555543.69,168124.33,188.5
2016-06-21T04:00:16Z,1466481616,101,41.511567,46.3298742,1999.58,20.1,0.8,195.6,555509.25,167904.94,189.4
2016-06-21T04:00:17Z,1466481617,101,41.5107704,46.3279511,1999.71,20.3,0.8,196.5,555471.12,167684.75,190.3
2016-06-21T04:00:18Z,1466481618,101,41.5099344,46.3260487,1999.82,18.1,0.8,197.4,555429.69,167466.53,191.2
2016-06-21T04:00:19Z,1466481619,101,41.509066,46.3241691,1999.88,15.5,0.7,198.2,555385.44,167250.58,191.9
2016-06-21T04:00:20Z,1466481620,101,41.5081531,46.3222736,1999.9,12.8,0.7,198.8,555338,167032.47,192.6
2016-06-21T04:00:21Z,1466481621,101,41.5072167,46.3203929,1999.89,17,0.8,199.4,555288.56,166815.83,193.2
2016-06-21T04:00:22Z,1466481622,101,41.5062463,46.3185278,1999.91,24.3,0.9,200.4,555236.25,166600.62,194.2
2016-06-21T04:00:23Z,1466481623,101,41.5052108,46.3166555,2000,25.7,0.9,201.6,555179.06,166384.08,195.4
2016-06-21T04:00:24Z,1466481624,101,41.5041346,46.3148248,2000.09,23.3,0.8,202.8,555118.31,166171.81,196.6
2016-06-21T04:00:25Z,1466481625,101,41.5030025,46.3129975,2000.13,19.9,0.7,203.7,555053.12,165959.48,197.5
2016-06-21T04:00:26Z,1466481626,101,41.5018212,46.3111715,2000.11,16.3,0.7,204.6,554984.12,165746.86,198.4
2016-06-21T04:00:27Z,1466481627,101,41.5006167,46.3093719,2000.06,12.8,0.7,205.2,554913.06,165537,199
2016-06-21T04:00:28Z,1466481628,101,41.4993769,46.3075692,1999.98,23.2,0.8,205.9,554839.25,165326.5,199.7
2016-06-21T04:00:29Z,1466481629,101,41.4980989,46.3058025,2000.04,36.5,1.2,207.5,554762.06,165119.69,201.3
2016-06-21T04:00:30Z,1466481630,101,41.4967295,46.3040562,2000.25,39.7,1.3,209.6,554677.62,164914.36,203.4
2016-06-21T04:00:31Z,1466481631,101,41.4952637,46.302336,2000.48,36.2,1.1,211.6,554585.44,164711.14,205.3
2016-06-21T04:00:32Z,1466481632,101,41.4937244,46.3006553,2000.63,32,1,213.3,554487.12,164511.7,207.1
2016-06-21T04:00:33Z,1466481633,101,41.4921214,46.2990068,2000.63,29.1,0.9,214.8,554383.5,164315.31,208.5
2016-06-21T04:00:34Z,1466481634,101,41.490463,46.2973837,2000.53,16.5,0.7,215.9,554275.31,164121.3,209.6
2016-06-21T04:00:35Z,1466481635,101,41.4887706,46.2957759,2000.3,10,0.6,216.4,554164.31,163928.67,210.2
2016-06-21T04:00:36Z,1466481636,101,41.4870678,46.2941844,2000.04,5.1,0.6,216.8,554052.25,163737.8,210.6
2016-06-21T04:00:37Z,1466481637,101,41.4853419,46.2925849,1999.82,2.4,0.6,216.9,553938.56,163545.84,210.7
2016-06-21T04:00:38Z,1466481638,101,41.483622,46.2909971,1999.67,0.8,0.6,217,553825.19,163355.23,210.8
2016-06-21T04:00:39Z,1466481639,101,41.4818972,46.289407,1999.59,-0.1,0.6,217,553711.5,163164.33,210.8
2016-06-21T04:00:40Z,1466481640,101,41.4801775,46.2878213,1999.56,-0.3,0.6,217,553598,162973.97,210.8
2016-06-21T04:00:41Z,1466481641,101,41.4784424,46.2862249,1999.58,10.5,0.7,217.2,553483.56,162782.28,211
2016-06-21T04:00:42Z,1466481642,101,41.4767024,46.2846474,1999.63,13,0.7,217.7,553368.5,162592.67,211.5
2016-06-21T04:00:43Z,1466481643,101,41.4749383,46.2830805,1999.71,13.5,0.7,218.3,553251.38,162404.03,212.1
2016-06-21T04:00:44Z,1466481644,101,41.4731495,46.2815259,1999.79,12.7,0.7,218.9,553132.25,162216.56,212.7
2016-06-21T04:00:45Z,1466481645,101,41.4713361,46.2799817,1999.86,12.1,0.7,219.5,553011.06,162030.03,213.3
2016-06-21T04:00:46Z,1466481646,101,41.4694949,46.2784498,1999.92,27,0.9,220.4,552887.62,161844.64,214.2
2016-06-21T04:00:47Z,1466481647,101,41.4676105,46.276947,2000.07,29.1,1,221.7,552760.5,161662.14,215.5
2016-06-21T04:00:48Z,1466481648,101,41.4656787,46.2754793,2000.23,27.7,0.9,223.2,552629.25,161483.14,217
2016-06-21T04:00:49Z,1466481649,101,41.4637,46.2740439,2000.34,24.8,0.8,224.3,552494,161307.36,218.2
2016-06-21T04:00:50Z,1466481650,101,41.4616788,46.2726353,2000.37,20.8,0.8,225.4,552355.19,161134.19,219.2
2016-06-21T04:00:51Z,1466481651,101,41.4596165,46.271245,2000.33,17.1,0.7,226.2,552213,160962.72,220.1
2016-06-21T04:00:52Z,1466481652,101,41.4575272,46.2698792,2000.26,30.1,1,227.4,552068.31,160793.75,221.2
2016-06-21T04:00:53Z,1466481653,101,41.4553937,46.2685495,2000.3,30.9,1,228.8,551919.94,160628.42,222.7
2016-06-21T04:00:54Z,1466481654,101,41.4532232,46.267266,2000.37,29.1,0.9,230.3,551768.06,160467.94,224.2
2016-06-21T04:00:55Z,1466481655,101,41.4509964,46.2660128,2000.42,25.5,0.8,231.6,551611.5,160310.34,225.5
2016-06-21T04:00:56Z,1466481656,101,41.4487187,46.2647852,2000.38,21,0.7,232.8,551450.69,160155.19,226.6
2016-06-21T04:00:57Z,1466481657,101,41.4464199,46.2635886,2000.29,16.6,0.7,233.6,551287.88,160003.31,227.4
2016-06-21T04:00:58Z,1466481658,101,41.4441054,46.2624163,2000.17,12.4,0.6,234.2,551123.62,159853.98,228
2016-06-21T04:00:59Z,1466481659,101,41.4417728,46.2612598,2000.04,11.4,0.6,234.8,550957.69,159706.28,228.6
2016-06-21T04:01:00Z,1466481660,101,41.4394304,46.2601227,1999.89,9.4,0.6,235.6,550790.81,159560.67,229.4
2016-06-21T04:01:01Z,1466481661,101,41.4370489,46.259008,1999.43,4.5,0.6,236.2,550620.62,159417.22,230
2016-06-21T04:01:02Z,1466481662,101,41.4346734,46.2579026,1999.09,2.1,0.6,236.2,550450.81,159274.84,230
2016-06-21T04:01:03Z,1466481663,101,41.4322927,46.2567945,1998.92,0.6,0.6,236.2,550280.56,159132.14,230
2016-06-21T04:01:04Z,1466481664,101,41.4298992,46.255678,1998.88,1.7,0.7,236,550109.44,158988.41,229.9
2016-06-21T04:01:05Z,1466481665,101,41.42752,46.2545747,1998.93,16.6,0.8,236.6,549939.31,158846.25,230.5
2016-06-21T04:01:06Z,1466481666,101,41.4251203,46.2534941,1999.08,22.6,0.9,237.5,549767.25,158706.47,231.4
2016-06-21T04:01:07Z,1466481667,101,41.4226737,46.2524341,1999.27,22.2,0.8,238.6,549591.38,158568.58,232.4
2016-06-21T04:01:08Z,1466481668,101,41.4202172,46.2514119,1999.47,20.3,0.8,239.5,549414.31,158434.81,233.4
2016-06-21T04:01:09Z,1466481669,101,41.417746,46.2504209,1999.61,17.7,0.8,240.4,549235.69,158304.41,234.3
2016-06-21T04:01:10Z,1466481670,101,41.4152371,46.2494467,1999.69,14.8,0.7,241.2,549053.94,158175.58,235
2016-06-21T04:01:11Z,1466481671,101,41.4127052,46.2484904,1999.73,12.6,0.7,241.8,548870.25,158048.52,235.6
2016-06-21T04:01:12Z,1466481672,101,41.4101862,46.2475639,1999.76,19.2,0.8,242.5,548687.12,157924.91,236.4
2016-06-21T04:01:13Z,1466481673,101,41.4076282,46.2466559,1999.8,19.1,0.8,243.4,548500.81,157803.02,237.3
2016-06-21T04:01:14Z,1466481674,101,41.4050532,46.2457756,1999.85,17.5,0.7,244.2,548312.88,157684.08,238.1
2016-06-21T04:01:15Z,1466481675,101,41.4024578,46.2449192,1999.88,15.1,0.7,245,548123,157567.62,238.9
2016-06-21T04:01:16Z,1466481676,101,41.3998559,46.2440869,1999.89,12.5,0.7,245.6,547932.38,157453.81,239.5
2016-06-21T04:01:17Z,1466481677,101,41.3972457,46.2432731,1999.87,10.9,0.7,246.1,547740.94,157341.98,239.9
2016-06-21T04:01:18Z,1466481678,101,41.394614,46.2424823,1999.93,50.7,2,247.7,547547.5,157232.55,241.6
2016-06-21T04:01:19Z,1466481679,101,41.3919411,46.241784,2000.37,56.8,2.6,251.2,547349.81,157133.05,245.1
2016-06-21T04:01:20Z,1466481680,101,41.3891983,46.2412092,2001.05,54,2.1,255.2,547145.25,157046.69,249
2016-06-21T04:01:21Z,1466481681,101,41.386396,46.2407474,2001.56,45.7,1.5,258.1,546934.81,156972.41,251.9
2016-06-21T04:01:22Z,1466481682,101,41.3835903,46.2403739,2001.64,36.2,1,260.2,546723,156907.92,254
2016-06-21T04:01:23Z,1466481683,101,41.3807632,46.2400609,2001.34,27.8,0.7,261.7,546508.88,156849.98,255.6
2016-06-21T04:01:24Z,1466481684,101,41.3779148,46.239792,2000.84,21,0.6,262.8,546292.56,156796.75,256.7
2016-06-21T04:01:25Z,1466481685,101,41.3750678,46.2395572,2000.32,15.4,0.6,263.6,546075.88,156747.34,257.5
2016-06-21T04:01:26Z,1466481686,101,41.3722299,46.2393478,1999.86,12.8,0.6,264.3,545859.69,156700.84,258.2
2016-06-21T04:01:27Z,1466481687,101,41.3693657,46.2391623,1999.57,28.2,0.9,265.3,545641.19,156656.78,259.2
2016-06-21T04:01:28Z,1466481688,101,41.3664955,46.239022,1999.49,29.8,1,266.8,545421.69,156617.7,260.6
2016-06-21T04:01:29Z,1466481689,101,41.3636388,46.2389318,1999.52,27.7,0.9,268.2,545202.56,156584.31,262
2016-06-21T04:01:30Z,1466481690,101,41.3607793,46.2388874,1999.58,24.4,0.8,269.4,544982.75,156555.98,263.3
2016-06-21T04:01:31Z,1466481691,101,41.3579025,46.2388829,1999.6,21.2,0.8,270.4,544761.12,156531.95,264.3
2016-06-21T04:01:32Z,1466481692,101,41.3550281,46.2389126,1999.59,19.2,0.7,271.3,544539.31,156511.75,265.2
2016-06-21T04:01:33Z,1466481693,101,41.3521762,46.2389728,1999.57,19.7,0.8,272.2,544318.81,156495.14,266.1
2016-06-21T04:01:34Z,1466481694,101,41.3493034,46.2390645,1999.56,17.8,0.7,273.1,544096.38,156481.84,267
2016-06-21T04:01:35Z,1466481695,101,41.3464471,46.2391839,1999.56,15.5,0.7,273.9,543874.81,156471.78,267.8
2016-06-21T04:01:36Z,1466481696,101,41.3435766,46.2393284,1999.56,13.1,0.7,274.5,543652,156464.39,268.4
2016-06-21T04:01:37Z,1466481697,101,41.3407266,46.2394922,1999.56,10.8,0.7,275,543430.44,156459.31,268.9
2016-06-21T04:01:38Z,1466481698,101,41.3378697,46.239673,1999.56,8.7,0.7,275.5,543208.12,156456.09,269.4
2016-06-21T04:01:39Z,1466481699,101,41.3350174,46.239867,1999.56,6.8,0.6,275.8,542986.06,156454.38,269.7
2016-06-21T04:01:40Z,1466481700,101,41.3321551,46.2400721,1999.58,5.2,0.6,276.1,542763.06,156453.81,270
2016-06-21T04:01:41Z,1466481701,101,41.3293,46.2402847,1999.6,3.9,0.6,276.3,542540.56,156454.16,270.2
2016-06-21T04:01:42Z,1466481702,101,41.3264532,46.2405028,1999.64,3.8,0.6,276.4,542318.62,156455.2,270.3
2016-06-21T04:01:43Z,1466481703,101,41.323605,46.2407301,1999.69,16.1,0.7,276.9,542096.5,156457.23,270.8
2016-06-21T04:01:44Z,1466481704,101,41.3207699,46.2409795,1999.77,18.5,0.8,277.7,541875.12,156461.84,271.6
2016-06-21T04:01:45Z,1466481705,101,41.3179238,46.2412586,1999.87,18.2,0.8,278.5,541652.5,156469.67,272.4
2016-06-21T04:01:46Z,1466481706,101,41.3150987,46.2415647,1999.96,16.7,0.7,279.3,541431.25,156480.69,273.3
2016-06-21T04:01:47Z,1466481707,101,41.3122705,46.2418975,2000.01,14.3,0.7,280,541209.38,156494.66,274
2016-06-21T04:01:48Z,1466481708,101,41.3094406,46.242253,2000.02,11.7,0.7,280.6,540987.19,156511.12,274.5
2016-06-21T04:01:49Z,1466481709,101,41.3066344,46.2426239,2000,9.4,0.6,281.1,540766.56,156529.52,275
2016-06-21T04:01:50Z,1466481710,101,41.303815,46.2430154,1999.99,26.4,0.9,281.8,540544.81,156550.08,275.8
2016-06-21T04:01:51Z,1466481711,101,41.3010162,46.2434442,2000.07,29.3,1,283.2,540324.06,156574.97,277.2
2016-06-21T04:01:52Z,1466481712,101,41.2982228,46.2439223,2000.21,29.1,0.9,284.7,540103.25,156605.39,278.6
2016-06-21T04:01:53Z,1466481713,101,41.2954703,46.2444431,2000.33,26.3,0.9,285.9,539885.12,156640.89,279.9