ISO time,Unix time,Id,Longitude,Latitude,Altitude,Roll,Pitch,Yaw,U,V,Heading
2016-06-21T04:00:01Z,1466481601,101,42.2417895,42.3533357,1997.91,0,0.4,272.9,661916.25,-267545.69,266.6
2016-06-21T04:00:02Z,1466481602,101,42.2391281,42.3534353,1996.95,0,0.5,272.9,661695.56,-267558.66,266.6
2016-06-21T04:00:03Z,1466481603,101,42.2364684,42.3535348,1996.18,0,0.6,272.9,661475.06,-267571.62,266.6
2016-06-21T04:00:04Z,1466481604,101,42.2338045,42.3536345,1995.8,0,0.7,272.9,661254.25,-267584.62,266.6
2016-06-21T04:00:05Z,1466481605,101,42.2311075,42.3537353,1995.77,0,0.7,272.9,661030.62,-267597.75,266.6
2016-06-21T04:00:06Z,1466481606,101,42.2284448,42.3538347,1995.99,0,0.8,272.9,660809.88,-267610.72,266.6
2016-06-21T04:00:07Z,1466481607,101,42.2257717,42.3539345,1996.37,0,0.8,272.9,660588.25,-267623.78,266.6
2016-06-21T04:00:08Z,1466481608,101,42.2230959,42.3540343,1996.82,0,0.8,272.9,660366.44,-267636.81,266.6
2016-06-21T04:00:09Z,1466481609,101,42.2204219,42.3541339,1997.29,0,0.8,272.9,660144.75,-267649.84,266.6
2016-06-21T04:00:10Z,1466481610,101,42.2177335,42.3542341,1997.75,0,0.7,272.9,659921.88,-267662.97,266.6
2016-06-21T04:00:11Z,1466481611,101,42.2150553,42.3543338,1998.16,0,0.7,272.9,659699.81,-267676,266.6
2016-06-21T04:00:12Z,1466481612,101,42.21239,42.3544329,1998.51,0,0.7,272.9,659478.88,-267689,266.6
2016-06-21T04:00:13Z,1466481613,101,42.2097185,42.3545323,1998.8,0,0.7,272.9,659257.38,-267702.03,266.6
2016-06-21T04:00:14Z,1466481614,101,42.2070368,42.354632,1999.05,0,0.7,272.9,659035.06,-267715.09,266.6
2016-06-21T04:00:15Z,1466481615,101,42.2043672,42.3547311,1999.25,0,0.7,272.9,658813.81,-267728.12,266.6
2016-06-21T04:00:16Z,1466481616,101,42.2016827,42.3548307,1999.41,0,0.7,272.9,658591.25,-267741.22,266.6
2016-06-21T04:00:17Z,1466481617,101,42.1990135,42.3549297,1999.53,0,0.7,272.9,658369.94,-267754.22,266.6
2016-06-21T04:00:18Z,1466481618,101,42.1963338,42.3550291,1999.63,0,0.7,272.9,658147.81,-267767.28,266.6
2016-06-21T04:00:19Z,1466481619,101,42.1936655,42.3551279,1999.71,0,0.7,272.9,657926.56,-267780.28,266.6
2016-06-21T04:00:20Z,1466481620,101,42.1909706,42.3552276,1999.77,0,0.6,272.9,657703.19,-267793.44,266.6
2016-06-21T04:00:21Z,1466481621,101,42.1883133,42.355326,1999.82,0,0.6,272.9,657482.94,-267806.38,266.6
2016-06-21T04:00:22Z,1466481622,101,42.1856255,42.3554253,1999.86,0,0.6,272.9,657260.12,-267819.5,266.6
2016-06-21T04:00:23Z,1466481623,101,42.1829526,42.355524,1999.89,0,0.6,272.9,657038.56,-267832.5,266.6
2016-06-21T04:00:24Z,1466481624,101,42.1802796,42.3556227,1999.91,0,0.6,272.9,656817,-267845.53,266.6
2016-06-21T04:00:25Z,1466481625,101,42.1776113,42.3557212,1999.93,0,0.6,272.9,656595.75,-267858.56,266.6
2016-06-21T04:00:26Z,1466481626,101,42.1749188,42.3558205,1999.95,0,0.6,272.9,656372.62,-267871.66,266.6
2016-06-21T04:00:27Z,1466481627,101,42.1722547,42.3559187,1999.96,0,0.6,272.9,656151.75,-267884.66,266.6
2016-06-21T04:00:28Z,1466481628,101,42.1695722,42.3560174,1999.97,0,0.6,272.9,655929.38,-267897.75,266.6
2016-06-21T04:00:29Z,1466481629,101,42.166896,42.356116,1999.97,0,0.6,272.9,655707.56,-267910.78,266.6
2016-06-21T04:00:30Z,1466481630,101,42.1642212,42.3562143,1999.98,0,0.6,272.9,655485.81,-267923.81,266.6
2016-06-21T04:00:31Z,1466481631,101,42.1615524,42.3563124,1999.98,0,0.6,272.9,655264.62,-267936.84,266.6
2016-06-21T04:00:32Z,1466481632,101,42.1588772,42.3564107,1999.99,0,0.6,272.9,655042.88,-267949.88,266.6
2016-06-21T04:00:33Z,1466481633,101,42.1561878,42.3565094,1999.99,0,0.6,272.9,654819.94,-267962.97,266.6
2016-06-21T04:00:34Z,1466481634,101,42.1535038,42.3566078,1999.99,0,0.6,272.9,654597.5,-267976.06,266.6
2016-06-21T04:00:35Z,1466481635,101,42.1508393,42.3567055,1999.99,0,0.6,272.9,654376.62,-267989.03,266.6
2016-06-21T04:00:36Z,1466481636,101,42.1481548,42.3568039,2000,0,0.6,272.9,654154.06,-268002.12,266.6
2016-06-21T04:00:37Z,1466481637,101,42.1454863,42.3569016,2000,0,0.6,272.9,653932.94,-268015.12,266.6
2016-06-21T04:00:38Z,1466481638,101,42.142817,42.3569993,2000,0,0.6,272.9,653711.69,-268028.16,266.6
2016-06-21T04:00:39Z,1466481639,101,42.1401263,42.3570977,2000,0,0.6,272.9,653488.62,-268041.25,266.6
2016-06-21T04:00:40Z,1466481640,101,42.1374552,42.3571953,2000,0,0.6,272.9,653267.25,-268054.28,266.6
2016-06-21T04:00:41Z,1466481641,101,42.1347816,42.3572929,2000,0,0.6,272.9,653045.62,-268067.31,266.6
2016-06-21T04:00:42Z,1466481642,101,42.1320881,42.3573912,2000,0,0.6,272.9,652822.44,-268080.47,266.6
2016-06-21T04:00:43Z,1466481643,101,42.1294336,42.357488,2000,0,0.6,272.9,652602.38,-268093.38,266.6
2016-06-21T04:00:44Z,1466481644,101,42.1267555,42.3575856,2000,0,0.6,272.9,652380.44,-268106.44,266.6
2016-06-21T04:00:45Z,1466481645,101,42.1240761,42.3576833,2000,0,0.6,272.9,652158.31,-268119.5,266.6
2016-06-21T04:00:46Z,1466481646,101,42.1213975,42.3577807,2000,0,0.6,272.9,651936.31,-268132.56,266.6
2016-06-21T04:00:47Z,1466481647,101,42.1187151,42.3578783,2000,0,0.6,272.9,651714,-268145.62,266.6
2016-06-21T04:00:48Z,1466481648,101,42.1160349,42.3579758,2000,0,0.6,272.9,651491.88,-268158.69,266.6
2016-06-21T04:00:49Z,1466481649,101,42.1133565,42.3580731,2000,0,0.6,272.9,651269.88,-268171.75,266.6
2016-06-21T04:00:50Z,1466481650,101,42.1106799,42.3581703,2000,0,0.6,272.9,651048.06,-268184.78,266.6
2016-06-21T04:00:51Z,1466481651,101,42.1080124,42.3582671,2000,0,0.6,272.9,650826.94,-268197.78,266.6
2016-06-21T04:00:52Z,1466481652,101,42.1053446,42.3583638,2000,0,0.6,272.9,650605.88,-268210.78,266.6
2016-06-21T04:00:53Z,1466481653,101,42.1026603,42.358461,2000,0,0.6,272.9,650383.38,-268223.88,266.6
2016-06-21T04:00:54Z,1466481654,101,42.0999865,42.3585578,2000,0,0.6,272.9,650161.81,-268236.91,266.6
2016-06-21T04:00:55Z,1466481655,101,42.0973098,42.3586548,2000,0,0.6,272.9,649940,-268249.94,266.6
2016-06-21T04:00:56Z,1466481656,101,42.0946406,42.3587513,2000,0,0.6,272.8,649718.75,-268262.94,266.6
2016-06-21T04:00:57Z,1466481657,101,42.0919482,42.3588486,2000,0,0.6,272.8,649495.62,-268276.06,266.6
2016-06-21T04:00:58Z,1466481658,101,42.0892818,42.3589449,2000,0,0.6,272.8,649274.62,-268289.06,266.6
2016-06-21T04:00:59Z,1466481659,101,42.0865999,42.3590417,2000,0,0.6,272.8,649052.38,-268302.16,266.6
2016-06-21T04:01:00Z,1466481660,101,42.0839219,42.3591383,2000,0,0.6,272.8,648830.44,-268315.19,266.6
2016-06-21T04:01:01Z,1466481661,101,42.081257,42.3592343,2000,0,0.6,272.8,648609.62,-268328.19,266.6
2016-06-21T04:01:02Z,1466481662,101,42.0785623,42.3593314,2000,0,0.6,272.8,648386.31,-268341.31,266.6
2016-06-21T04:01:03Z,1466481663,101,42.0758806,42.359428,2000,0,0.6,272.8,648164.06,-268354.38,266.6
2016-06-21T04:01:04Z,1466481664,101,42.0732037,42.3595242,2000,0,0.6,272.8,647942.25,-268367.44,266.6
2016-06-21T04:01:05Z,1466481665,101,42.0705238,42.3596206,2000,0,0.6,272.8,647720.12,-268380.47,266.6
2016-06-21T04:01:06Z,1466481666,101,42.067853,42.3597165,2000,0,0.6,272.8,647498.81,-268393.5,266.6
2016-06-21T04:01:07Z,1466481667,101,42.0651862,42.3598123,2000,0,0.6,272.8,647277.75,-268406.5,266.6
2016-06-21T04:01:08Z,1466481668,101,42.0625129,42.3599082,2000,0,0.6,272.8,647056.25,-268419.53,266.6
2016-06-21T04:01:09Z,1466481669,101,42.0598264,42.3600046,2000,0,0.6,272.8,646833.62,-268432.62,266.6
2016-06-21T04:01:10Z,1466481670,101,42.057164,42.3601,2000,0,0.6,272.8,646613,-268445.59,266.6
2016-06-21T04:01:11Z,1466481671,101,42.0544803,42.3601961,2000,0,0.6,272.8,646390.62,-268458.69,266.6
2016-06-21T04:01:12Z,1466481672,101,42.0518006,42.360292,2000,0,0.6,272.8,646168.56,-268471.75,266.6
2016-06-21T04:01:13Z,1466481673,101,42.0491281,42.3603875,2000,0,0.6,272.8,645947.12,-268484.75,266.6
2016-06-21T04:01:14Z,1466481674,101,42.0464448,42.3604835,2000,0,0.6,272.8,645724.75,-268497.84,266.6
2016-06-21T04:01:15Z,1466481675,101,42.0437784,42.3605787,2000,0,0.6,272.8,645503.81,-268510.81,266.6
2016-06-21T04:01:16Z,1466481676,101,42.0410865,42.3606747,2000,0,0.6,272.8,645280.75,-268523.94,266.6
2016-06-21T04:01:17Z,1466481677,101,42.0384052,42.3607704,2000,0,0.6,272.8,645058.56,-268537,266.6
2016-06-21T04:01:18Z,1466481678,101,42.035736,42.3608655,2000,0,0.6,272.8,644837.38,-268550,266.6
2016-06-21T04:01:19Z,1466481679,101,42.0330605,42.3609609,2000,0,0.6,272.8,644615.69,-268563.03,266.6
2016-06-21T04:01:20Z,1466481680,101,42.0303726,42.3610565,2000,0,0.6,272.8,644392.94,-268576.12,266.6
2016-06-21T04:01:21Z,1466481681,101,42.0277076,42.3611513,2000,0,0.6,272.8,644172.12,-268589.12,266.6
2016-06-21T04:01:22Z,1466481682,101,42.0250185,42.3612469,2000,0,0.6,272.8,643949.31,-268602.22,266.6
2016-06-21T04:01:23Z,1466481683,101,42.0223454,42.3613419,2000,0,0.6,272.8,643727.81,-268615.25,266.6
2016-06-21T04:01:24Z,1466481684,101,42.0196768,42.3614366,2000,0,0.6,272.8,643506.69,-268628.25,266.6
2016-06-21T04:01:25Z,1466481685,101,42.0169935,42.3615318,2000,0,0.6,272.8,643284.38,-268641.31,266.6
2016-06-21T04:01:26Z,1466481686,101,42.0143079,42.3616271,2000,0,0.6,272.8,643061.81,-268654.41,266.6
2016-06-21T04:01:27Z,1466481687,101,42.0116488,42.3617213,2000,0,0.6,272.8,642841.5,-268667.38,266.6
2016-06-21T04:01:28Z,1466481688,101,42.008963,42.3618164,2000,0,0.6,272.8,642619,-268680.47,266.6
2016-06-21T04:01:29Z,1466481689,101,42.0062815,42.3619113,2000,0,0.6,272.8,642396.81,-268693.53,266.6
2016-06-21T04:01:30Z,1466481690,101,42.0036078,42.3620058,2000,0,0.6,272.8,642175.25,-268706.56,266.6
2016-06-21T04:01:31Z,1466481691,101,42.0009274,42.3621005,2000,0,0.6,272.8,641953.19,-268719.59,266.6
2016-06-21T04:01:32Z,1466481692,101,41.9982405,42.3621954,2000,0,0.6,272.8,641730.56,-268732.69,266.6
2016-06-21T04:01:33Z,1466481693,101,41.9955655,42.3622898,2000,0,0.6,272.8,641508.88,-268745.75,266.6
2016-06-21T04:01:34Z,1466481694,101,41.9929049,42.3623836,2000,0,0.6,272.8,641288.5,-268758.72,266.6
2016-06-21T04:01:35Z,1466481695,101,41.9902264,42.362478,2000,0,0.6,272.8,641066.56,-268771.75,266.6
2016-06-21T04:01:36Z,1466481696,101,41.98755,42.3625723,2000,0,0.6,272.8,640844.81,-268784.78,266.6
2016-06-21T04:01:37Z,1466481697,101,41.9848682,42.3626667,2000,0,0.6,272.8,640622.62,-268797.88,266.6
2016-06-21T04:01:38Z,1466481698,101,41.9821817,42.3627612,2000,0,0.6,272.8,640400,-268810.97,266.6
2016-06-21T04:01:39Z,1466481699,101,41.9795137,42.3628549,2000,0,0.6,272.8,640179,-268823.94,266.6
2016-06-21T04:01:40Z,1466481700,101,41.9768302,42.3629492,2000,0,0.6,272.8,639956.62,-268837.03,266.6
2016-06-21T04:01:41Z,1466481701,101,41.9741455,42.3630434,2000,0,0.6,272.8,639734.19,-268850.09,266.6
2016-06-21T04:01:42Z,1466481702,101,41.9714752,42.3631371,2000,0,0.6,272.8,639513,-268863.12,266.6
2016-06-21T04:01:43Z,1466481703,101,41.9688015,42.3632308,2000,0,0.6,272.8,639291.5,-268876.16,266.6
2016-06-21T04:01:44Z,1466481704,101,41.9661179,42.3633248,2000,0,0.6,272.8,639069.12,-268889.22,266.6