ISO time,Unix time,Id,Longitude,Latitude,Altitude,Roll,Pitch,Yaw,U,V,Heading
2016-06-21T04:00:01Z,1466481601,101,42.2418771,42.3537599,1997.91,0,0.4,285.1,661918.31,-267497.72,278.8
2016-06-21T04:00:02Z,1466481602,101,42.2393133,42.3542718,1996.95,0,0.5,285.1,661700.69,-267464,278.8
2016-06-21T04:00:03Z,1466481603,101,42.2367375,42.3547862,1996.18,0,0.6,285.1,661482,-267430.09,278.8
2016-06-21T04:00:04Z,1466481604,101,42.234152,42.3553023,1995.8,0,0.7,285.1,661262.56,-267396.06,278.8
2016-06-21T04:00:05Z,1466481605,101,42.2315623,42.3558192,1995.76,0,0.7,285.1,661042.75,-267362,278.8
2016-06-21T04:00:06Z,1466481606,101,42.228976,42.3563355,1995.99,0,0.8,285.1,660823.25,-267327.94,278.8
2016-06-21T04:00:07Z,1466481607,101,42.226379,42.3568537,1996.37,0,0.8,285.1,660602.81,-267293.78,278.8
2016-06-21T04:00:08Z,1466481608,101,42.2238079,42.3573667,1996.82,0,0.8,285.1,660384.56,-267259.97,278.8
2016-06-21T04:00:09Z,1466481609,101,42.2212214,42.3578827,1997.3,0,0.8,285.1,660165.06,-267225.91,278.8
2016-06-21T04:00:10Z,1466481610,101,42.2186286,42.3584,1997.75,0,0.7,285.1,659945,-267191.81,278.8
2016-06-21T04:00:11Z,1466481611,101,42.2160342,42.3589174,1998.15,0,0.7,285.1,659724.81,-267157.66,278.8
2016-06-21T04:00:12Z,1466481612,101,42.2134475,42.3594334,1998.5,0,0.7,285.1,659505.31,-267123.62,278.8
2016-06-21T04:00:13Z,1466481613,101,42.2108513,42.359951,1998.8,0,0.7,285.1,659285,-267089.47,278.8
2016-06-21T04:00:14Z,1466481614,101,42.2082823,42.3604633,1999.05,0,0.7,285.1,659067,-267055.66,278.8
2016-06-21T04:00:15Z,1466481615,101,42.2056887,42.3609803,1999.24,0,0.7,285.1,658846.88,-267021.56,278.8
2016-06-21T04:00:16Z,1466481616,101,42.2030935,42.3614976,1999.41,0,0.7,285.1,658626.62,-266987.41,278.8
2016-06-21T04:00:17Z,1466481617,101,42.2005118,42.3620121,1999.53,0,0.7,285.1,658407.56,-266953.44,278.8
2016-06-21T04:00:18Z,1466481618,101,42.1979289,42.3625268,1999.63,0,0.7,285.1,658188.38,-266919.47,278.8
2016-06-21T04:00:19Z,1466481619,101,42.1953382,42.3630431,1999.71,0,0.7,285.1,657968.5,-266885.38,278.8
2016-06-21T04:00:20Z,1466481620,101,42.1927524,42.3635582,1999.78,0,0.6,285.1,657749.12,-266851.38,278.8
2016-06-21T04:00:21Z,1466481621,101,42.190156,42.3640755,1999.83,0,0.6,285.1,657528.81,-266817.22,278.8
2016-06-21T04:00:22Z,1466481622,101,42.1875686,42.3645908,1999.86,0,0.6,285.1,657309.31,-266783.19,278.8
2016-06-21T04:00:23Z,1466481623,101,42.1849884,42.3651047,1999.89,0,0.6,285.1,657090.38,-266749.22,278.8
2016-06-21T04:00:24Z,1466481624,101,42.1824044,42.3656192,1999.92,0,0.6,285.1,656871.12,-266715.25,278.8
2016-06-21T04:00:25Z,1466481625,101,42.1798014,42.3661375,1999.93,0,0.6,285.1,656650.25,-266681,278.8
2016-06-21T04:00:26Z,1466481626,101,42.177222,42.366651,1999.95,0,0.6,285.1,656431.44,-266647.06,278.8
2016-06-21T04:00:27Z,1466481627,101,42.1746403,42.3671649,1999.96,0,0.6,285.1,656212.38,-266613.12,278.8
2016-06-21T04:00:28Z,1466481628,101,42.1720397,42.3676824,1999.97,0,0.6,285.1,655991.75,-266578.91,278.8
2016-06-21T04:00:29Z,1466481629,101,42.1694636,42.3681951,1999.97,0,0.6,285.1,655773.19,-266545.03,278.8
2016-06-21T04:00:30Z,1466481630,101,42.166861,42.368713,1999.98,0,0.6,285.1,655552.44,-266510.78,278.8
2016-06-21T04:00:31Z,1466481631,101,42.1642737,42.3692277,1999.98,0,0.6,285.1,655332.88,-266476.78,278.8
2016-06-21T04:00:32Z,1466481632,101,42.1616967,42.3697404,1999.99,0,0.6,285.1,655114.31,-266442.88,278.8
2016-06-21T04:00:33Z,1466481633,101,42.1590984,42.3702572,1999.99,0,0.6,285.1,654893.88,-266408.72,278.8
2016-06-21T04:00:34Z,1466481634,101,42.1565096,42.370772,1999.99,0,0.6,285.1,654674.25,-266374.66,278.8
2016-06-21T04:00:35Z,1466481635,101,42.1539207,42.3712868,1999.99,0,0.6,285.1,654454.62,-266340.59,278.8
2016-06-21T04:00:36Z,1466481636,101,42.1513363,42.3718007,2000,0,0.6,285.1,654235.44,-266306.59,278.8
2016-06-21T04:00:37Z,1466481637,101,42.1487377,42.3723173,2000,0,0.6,285.1,654015,-266272.44,278.8
2016-06-21T04:00:38Z,1466481638,101,42.1461508,42.3728315,2000,0,0.6,285.1,653795.56,-266238.44,278.8
2016-06-21T04:00:39Z,1466481639,101,42.1435704,42.3733443,2000,0,0.6,285.1,653576.75,-266204.5,278.8
2016-06-21T04:00:40Z,1466481640,101,42.1409846,42.3738581,2000,0,0.6,285.1,653357.38,-266170.5,278.8
2016-06-21T04:00:41Z,1466481641,101,42.1383956,42.3743726,2000,0,0.6,285.1,653137.81,-266136.44,278.8
2016-06-21T04:00:42Z,1466481642,101,42.135796,42.374889,2000,0,0.6,285.1,652917.31,-266102.25,278.8
2016-06-21T04:00:43Z,1466481643,101,42.133218,42.3754011,2000,0,0.6,285.1,652698.62,-266068.38,278.8
2016-06-21T04:00:44Z,1466481644,101,42.1306233,42.3759166,2000,0,0.6,285.1,652478.56,-266034.28,278.8
2016-06-21T04:00:45Z,1466481645,101,42.128035,42.3764306,2000,0,0.6,285.1,652259.06,-266000.22,278.8
2016-06-21T04:00:46Z,1466481646,101,42.1254479,42.3769443,2000,0,0.6,285.1,652039.69,-265966.22,278.8
2016-06-21T04:00:47Z,1466481647,101,42.1228459,42.3774609,2000,0,0.6,285,651819,-265932,278.8
2016-06-21T04:00:48Z,1466481648,101,42.1202554,42.3779752,2000,0,0.6,285,651599.31,-265897.94,278.8
2016-06-21T04:00:49Z,1466481649,101,42.117681,42.3784861,2000,0,0.6,285,651381,-265864.09,278.8
2016-06-21T04:00:50Z,1466481650,101,42.1150851,42.3790014,2000,0,0.6,285,651160.81,-265829.97,278.8
2016-06-21T04:00:51Z,1466481651,101,42.112493,42.3795158,2000,0,0.6,285,650941.06,-265795.88,278.8
2016-06-21T04:00:52Z,1466481652,101,42.1099037,42.3800295,2000,0,0.6,285,650721.5,-265761.84,278.8
2016-06-21T04:00:53Z,1466481653,101,42.1073103,42.380544,2000,0,0.6,285,650501.56,-265727.75,278.8
2016-06-21T04:00:54Z,1466481654,101,42.1047258,42.3810567,2000,0,0.6,285,650282.38,-265693.78,278.8
2016-06-21T04:00:55Z,1466481655,101,42.1021335,42.3815708,2000,0,0.6,285,650062.62,-265659.69,278.8
2016-06-21T04:00:56Z,1466481656,101,42.0995469,42.3820838,2000,0,0.6,285,649843.25,-265625.69,278.8
2016-06-21T04:00:57Z,1466481657,101,42.0969624,42.3825963,2000,0,0.6,285,649624.12,-265591.72,278.8
2016-06-21T04:00:58Z,1466481658,101,42.0943759,42.3831091,2000,0,0.6,285,649404.81,-265557.72,278.8
2016-06-21T04:00:59Z,1466481659,101,42.0917705,42.3836256,2000,0,0.6,285,649183.94,-265523.47,278.8
2016-06-21T04:01:00Z,1466481660,101,42.0891906,42.384137,2000,0,0.6,285,648965.19,-265489.56,278.8
2016-06-21T04:01:01Z,1466481661,101,42.0866024,42.3846499,2000,0,0.6,285,648745.75,-265455.56,278.8
2016-06-21T04:01:02Z,1466481662,101,42.0840069,42.3851643,2000,0,0.6,285,648525.69,-265421.44,278.8
2016-06-21T04:01:03Z,1466481663,101,42.0814223,42.3856764,2000,0,0.6,285,648306.56,-265387.47,278.8
2016-06-21T04:01:04Z,1466481664,101,42.0788319,42.3861896,2000,0,0.6,285,648087,-265353.41,278.8
2016-06-21T04:01:05Z,1466481665,101,42.0762265,42.3867057,2000,0,0.6,285,647866.12,-265319.19,278.8
2016-06-21T04:01:06Z,1466481666,101,42.0736492,42.3872162,2000,0,0.6,285,647647.62,-265285.28,278.8
2016-06-21T04:01:07Z,1466481667,101,42.0710524,42.3877304,2000,0,0.6,285,647427.44,-265251.16,278.8
2016-06-21T04:01:08Z,1466481668,101,42.0684691,42.388242,2000,0,0.6,285,647208.5,-265217.22,278.8
2016-06-21T04:01:09Z,1466481669,101,42.0658651,42.3887575,2000,0,0.6,285,646987.75,-265182.97,278.8
2016-06-21T04:01:10Z,1466481670,101,42.0632741,42.3892704,2000,0,0.6,285,646768.12,-265148.94,278.8
2016-06-21T04:01:11Z,1466481671,101,42.0607012,42.3897797,2000,0,0.6,285,646550,-265115.12,278.8
2016-06-21T04:01:12Z,1466481672,101,42.0580984,42.3902948,2000,0,0.6,285,646329.44,-265080.94,278.8
2016-06-21T04:01:13Z,1466481673,101,42.0555177,42.3908055,2000,0,0.6,285,646110.62,-265047.03,278.8
2016-06-21T04:01:14Z,1466481674,101,42.0529167,42.3913201,2000,0,0.6,285,645890.19,-265012.84,278.8
2016-06-21T04:01:15Z,1466481675,101,42.05032,42.3918338,2000,0,0.6,285,645670.06,-264978.72,278.8
2016-06-21T04:01:16Z,1466481676,101,42.0477386,42.3923445,2000,0,0.6,285,645451.31,-264944.81,278.8
2016-06-21T04:01:17Z,1466481677,101,42.0451429,42.3928579,2000,0,0.6,285,645231.25,-264910.69,278.8
2016-06-21T04:01:18Z,1466481678,101,42.0425511,42.3933704,2000,0,0.6,285,645011.62,-264876.62,278.8
2016-06-21T04:01:19Z,1466481679,101,42.0399669,42.3938814,2000,0,0.6,285,644792.62,-264842.69,278.8
2016-06-21T04:01:20Z,1466481680,101,42.0373766,42.3943935,2000,0,0.6,285,644573.06,-264808.66,278.8
2016-06-21T04:01:21Z,1466481681,101,42.0347838,42.3949061,2000,0,0.6,285,644353.38,-264774.59,278.8
2016-06-21T04:01:22Z,1466481682,101,42.0322,42.3954167,2000,0,0.6,285,644134.38,-264740.62,278.8
2016-06-21T04:01:23Z,1466481683,101,42.0295946,42.3959317,2000,0,0.6,285,643913.56,-264706.41,278.8
2016-06-21T04:01:24Z,1466481684,101,42.0270136,42.3964417,2000,0,0.6,285,643694.81,-264672.47,278.8
2016-06-21T04:01:25Z,1466481685,101,42.0244075,42.3969567,2000,0,0.6,285,643474,-264638.25,278.8
2016-06-21T04:01:26Z,1466481686,101,42.021832,42.3974654,2000,0,0.6,285,643255.75,-264604.41,278.8
2016-06-21T04:01:27Z,1466481687,101,42.0192314,42.3979791,2000,0,0.6,285,643035.38,-264570.25,278.8
2016-06-21T04:01:28Z,1466481688,101,42.0166396,42.398491,2000,0,0.6,285,642815.81,-264536.19,278.8
2016-06-21T04:01:29Z,1466481689,101,42.014041,42.3990042,2000,0,0.6,285,642595.56,-264502.06,278.8
2016-06-21T04:01:30Z,1466481690,101,42.0114641,42.399513,2000,0,0.6,285,642377.19,-264468.22,278.8
2016-06-21T04:01:31Z,1466481691,101,42.0088636,42.4000264,2000,0,0.6,285,642156.88,-264434.06,278.8
2016-06-21T04:01:32Z,1466481692,101,42.0062836,42.4005358,2000,0,0.6,285,641938.25,-264400.16,278.8
2016-06-21T04:01:33Z,1466481693,101,42.0036771,42.4010501,2000,0,0.6,285,641717.44,-264365.94,278.8
2016-06-21T04:01:34Z,1466481694,101,42.0010893,42.4015609,2000,0,0.6,285,641498.19,-264331.94,278.8
2016-06-21T04:01:35Z,1466481695,101,41.9985,42.4020718,2000,0,0.6,285,641278.81,-264297.91,278.8
2016-06-21T04:01:36Z,1466481696,101,41.9959017,42.4025844,2000,0,0.6,285,641058.62,-264263.78,278.8
2016-06-21T04:01:37Z,1466481697,101,41.9933127,42.4030952,2000,0,0.6,285,640839.25,-264229.78,278.8
2016-06-21T04:01:38Z,1466481698,101,41.9907351,42.4036037,2000,0,0.6,285,640620.94,-264195.94,278.8
2016-06-21T04:01:39Z,1466481699,101,41.9881271,42.4041181,2000,0,0.6,285,640400,-264161.69,278.8
2016-06-21T04:01:40Z,1466481700,101,41.9855475,42.4046267,2000,0,0.6,285,640181.44,-264127.78,278.8
2016-06-21T04:01:41Z,1466481701,101,41.9829508,42.4051388,2000,0,0.6,285,639961.44,-264093.69,278.8
2016-06-21T04:01:42Z,1466481702,101,41.9803532,42.4056509,2000,0,0.6,285,639741.38,-264059.59,278.8
2016-06-21T04:01:43Z,1466481703,101,41.9777714,42.4061598,2000,0,0.6,285,639522.69,-264025.69,278.8
2016-06-21T04:01:44Z,1466481704,101,41.9751668,42.4066732,2000,0,0.6,284.9,639302.06,-263991.47,278.8
2016-06-21T04:01:45Z,1466481705,101,41.9725763,42.4071837,2000,0,0.6,284.9,639082.62,-263957.44,278.8
2016-06-21T04:01:46Z,1466481706,101,41.9699986,42.4076916,2000,0,0.6,284.9,638864.25,-263923.59,278.8
2016-06-21T04:01:47Z,1466481707,101,41.9673936,42.4082049,2000,0,0.6,284.9,638643.62,-263889.38,278.8
2016-06-21T04:01:48Z,1466481708,101,41.9648025,42.4087153,2000,0,0.6,284.9,638424.19,-263855.34,278.8
2016-06-21T04:01:49Z,1466481709,101,41.9622056,42.4092269,2000,0,0.6,284.9,638204.19,-263821.25,278.8
2016-06-21T04:01:50Z,1466481710,101,41.9596042,42.4097392,2000,0,0.6,284.9,637983.81,-263787.09,278.8