ISO time,Unix time,Id,Longitude,Latitude,Altitude,Roll,Pitch,Yaw,U,V,Heading,Type,Color,Coalition,Name,Pilot,Group,Country
2016-06-21T04:00:01Z,1466481601,101,42.247003,42.3540743,1997.91,0,0.4,65.6,662337.06,-267416.44,59.3,Air+FixedWing,Red,Allies,MiG-21Bis,固定翼-1-1,固定翼-1,us
2016-06-21T04:00:02Z,1466481602,101,42.2494148,42.3548884,1996.95,0,0.5,65.6,662526.06,-267304.12,59.3,Air+FixedWing,Red,Allies,MiG-21Bis,固定翼-1-1,固定翼-1,us
2016-06-21T04:00:03Z,1466481603,101,42.2518508,42.3557105,1996.19,0,0.6,65.6,662716.88,-267190.72,59.3,Air+FixedWing,Red,Allies,MiG-21Bis,固定翼-1-1,固定翼-1,us
2016-06-21T04:00:04Z,1466481604,101,42.2542797,42.3565301,1995.8,0,0.7,65.6,662907.12,-267077.59,59.3,Air+FixedWing,Red,Allies,MiG-21Bis,固定翼-1-1,固定翼-1,us
2016-06-21T04:00:05Z,1466481605,101,42.2567234,42.3573547,1995.76,0,0.7,65.6,663098.5,-266963.81,59.3,Air+FixedWing,Red,Allies,MiG-21Bis,固定翼-1-1,固定翼-1,us
2016-06-21T04:00:06Z,1466481606,101,42.2591551,42.3581751,1995.98,0,0.8,65.6,663289,-266850.59,59.3,Air+FixedWing,Red,Allies,MiG-21Bis,固定翼-1-1,固定翼-1,us
2016-06-21T04:00:07Z,1466481607,101,42.261605,42.3590016,1996.37,0,0.8,65.6,663480.88,-266736.53,59.3,Air+FixedWing,Red,Allies,MiG-21Bis,固定翼-1-1,固定翼-1,us
2016-06-21T04:00:08Z,1466481608,101,42.2640255,42.3598181,1996.82,0,0.8,65.6,663670.5,-266623.84,59.3,Air+FixedWing,Red,Allies,MiG-21Bis,固定翼-1-1,固定翼-1,us
2016-06-21T04:00:09Z,1466481609,101,42.2664659,42.3606412,1997.3,0,0.8,65.6,663861.62,-266510.22,59.3,Air+FixedWing,Red,Allies,MiG-21Bis,固定翼-1-1,固定翼-1,us
2016-06-21T04:00:10Z,1466481610,101,42.2689139,42.3614668,1997.75,0,0.7,65.6,664053.31,-266396.25,59.3,Air+FixedWing,Red,Allies,MiG-21Bis,固定翼-1-1,固定翼-1,us
2016-06-21T04:00:11Z,1466481611,101,42.2713635,42.3622929,1998.16,0,0.7,65.6,664245.19,-266282.22,59.3,Air+FixedWing,Red,Allies,MiG-21Bis,固定翼-1-1,固定翼-1,us
2016-06-21T04:00:12Z,1466481612,101,42.2737967,42.3631134,1998.5,0,0.7,65.6,664435.75,-266168.94,59.3,Air+FixedWing,Red,Allies,MiG-21Bis,固定翼-1-1,固定翼-1,us
2016-06-21T04:00:13Z,1466481613,101,42.2762329,42.3639348,1998.8,0,0.7,65.6,664626.56,-266055.53,59.3,Air+FixedWing,Red,Allies,MiG-21Bis,固定翼-1-1,固定翼-1,us
2016-06-21T04:00:14Z,1466481614,101,42.2786635,42.3647543,1999.05,0,0.7,65.6,664816.88,-265942.38,59.3,Air+FixedWing,Red,Allies,MiG-21Bis,固定翼-1-1,固定翼-1,us
2016-06-21T04:00:15Z,1466481615,101,42.2811095,42.3655788,1999.24,0,0.7,65.6,665008.44,-265828.53,59.3,Air+FixedWing,Red,Allies,MiG-21Bis,固定翼-1-1,固定翼-1,us
2016-06-21T04:00:16Z,1466481616,101,42.2835495,42.3664012,1999.4,0,0.7,65.6,665199.5,-265714.91,59.3,Air+FixedWing,Red,Allies,MiG-21Bis,固定翼-1-1,固定翼-1,us
2016-06-21T04:00:17Z,1466481617,101,42.2859961,42.3672258,1999.53,0,0.7,65.6,665391.06,-265601.06,59.3,Air+FixedWing,Red,Allies,MiG-21Bis,固定翼-1-1,固定翼-1,us
2016-06-21T04:00:18Z,1466481618,101,42.2884321,42.3680468,1999.63,0,0.7,65.6,665581.81,-265487.66,59.3,Air+FixedWing,Red,Allies,MiG-21Bis,固定翼-1-1,固定翼-1,us
2016-06-21T04:00:19Z,1466481619,101,42.2908622,42.3688656,1999.71,0,0.7,65.6,665772.12,-265374.53,59.3,Air+FixedWing,Red,Allies,MiG-21Bis,固定翼-1-1,固定翼-1,us
2016-06-21T04:00:20Z,1466481620,101,42.2933133,42.3696915,1999.77,0,0.6,65.6,665964.06,-265260.47,59.3,Air+FixedWing,Red,Allies,MiG-21Bis,固定翼-1-1,固定翼-1,us
2016-06-21T04:00:21Z,1466481621,101,42.2957348,42.3705074,1999.82,0,0.6,65.6,666153.62,-265147.75,59.3,Air+FixedWing,Red,Allies,MiG-21Bis,固定翼-1-1,固定翼-1,us
2016-06-21T04:00:22Z,1466481622,101,42.2981856,42.371333,1999.86,0,0.6,65.6,666345.5,-265033.69,59.3,Air+FixedWing,Red,Allies,MiG-21Bis,固定翼-1-1,固定翼-1,us
2016-06-21T04:00:23Z,1466481623,101,42.3006271,42.3721554,1999.89,0,0.6,65.6,666536.69,-264920.03,59.3,Air+FixedWing,Red,Allies,MiG-21Bis,固定翼-1-1,固定翼-1,us
2016-06-21T04:00:24Z,1466481624,101,42.3030732,42.3729792,1999.91,0,0.6,65.6,666728.19,-264806.22,59.3,Air+FixedWing,Red,Allies,MiG-21Bis,固定翼-1-1,固定翼-1,us
2016-06-21T04:00:25Z,1466481625,101,42.3055008,42.3737968,1999.93,0,0.6,65.6,666918.25,-264693.22,59.3,Air+FixedWing,Red,Allies,MiG-21Bis,固定翼-1-1,固定翼-1,us
2016-06-21T04:00:26Z,1466481626,101,42.3079446,42.3746197,1999.95,0,0.6,65.6,667109.62,-264579.5,59.3,Air+FixedWing,Red,Allies,MiG-21Bis,固定翼-1-1,固定翼-1,us
2016-06-21T04:00:27Z,1466481627,101,42.3103814,42.3754403,1999.96,0,0.6,65.6,667300.38,-264466.09,59.3,Air+FixedWing,Red,Allies,MiG-21Bis,固定翼-1-1,固定翼-1,us
2016-06-21T04:00:28Z,1466481628,101,42.312836,42.3762667,1999.97,0,0.6,65.6,667492.5,-264351.88,59.3,Air+FixedWing,Red,Allies,MiG-21Bis,固定翼-1-1,固定翼-1,us
2016-06-21T04:00:29Z,1466481629,101,42.3152653,42.3770845,1999.97,0,0.6,65.6,667682.75,-264238.81,59.3,Air+FixedWing,Red,Allies,MiG-21Bis,固定翼-1-1,固定翼-1,us
2016-06-21T04:00:30Z,1466481630,101,42.3176963,42.3779029,1999.98,0,0.6,65.6,667873.06,-264125.69,59.3,Air+FixedWing,Red,Allies,MiG-21Bis,固定翼-1-1,固定翼-1,us
2016-06-21T04:00:31Z,1466481631,101,42.3201341,42.3787234,1999.98,0,0.6,65.6,668063.88,-264012.25,59.3,Air+FixedWing,Red,Allies,MiG-21Bis,固定翼-1-1,固定翼-1,us
2016-06-21T04:00:32Z,1466481632,101,42.3225768,42.3795455,1999.99,0,0.6,65.6,668255.06,-263898.59,59.3,Air+FixedWing,Red,Allies,MiG-21Bis,固定翼-1-1,固定翼-1,us
2016-06-21T04:00:33Z,1466481633,101,42.3250191,42.3803674,1999.99,0,0.6,65.6,668446.25,-263784.94,59.3,Air+FixedWing,Red,Allies,MiG-21Bis,固定翼-1-1,固定翼-1,us
2016-06-21T04:00:34Z,1466481634,101,42.3274573,42.3811878,1999.99,0,0.6,65.6,668637.12,-263671.5,59.3,Air+FixedWing,Red,Allies,MiG-21Bis,固定翼-1-1,固定翼-1,us
2016-06-21T04:00:35Z,1466481635,101,42.3299139,42.3820144,1999.99,0,0.6,65.7,668829.38,-263557.19,59.3,Air+FixedWing,Red,Allies,MiG-21Bis,固定翼-1-1,固定翼-1,us
2016-06-21T04:00:36Z,1466481636,101,42.3323388,42.3828302,2000,0,0.6,65.7,669019.19,-263444.38,59.3,Air+FixedWing,Red,Allies,MiG-21Bis,固定翼-1-1,固定翼-1,us
2016-06-21T04:00:37Z,1466481637,101,42.3347828,42.3836524,2000,0,0.6,65.7,669210.5,-263330.66,59.3,Air+FixedWing,Red,Allies,MiG-21Bis,固定翼-1-1,固定翼-1,us
2016-06-21T04:00:38Z,1466481638,101,42.3372206,42.3844723,2000,0,0.6,65.7,669401.31,-263217.22,59.3,Air+FixedWing,Red,Allies,MiG-21Bis,固定翼-1-1,固定翼-1,us
2016-06-21T04:00:39Z,1466481639,101,42.339659,42.3852924,2000,0,0.6,65.7,669592.12,-263103.81,59.3,Air+FixedWing,Red,Allies,MiG-21Bis,固定翼-1-1,固定翼-1,us
2016-06-21T04:00:40Z,1466481640,101,42.3421011,42.3861137,2000,0,0.6,65.7,669783.31,-262990.19,59.3,Air+FixedWing,Red,Allies,MiG-21Bis,固定翼-1-1,固定翼-1,us
2016-06-21T04:00:41Z,1466481641,101,42.3445467,42.3869361,2000,0,0.6,65.7,669974.69,-262876.41,59.3,Air+FixedWing,Red,Allies,MiG-21Bis,固定翼-1-1,固定翼-1,us
2016-06-21T04:00:42Z,1466481642,101,42.3469815,42.3877548,2000,0,0.6,65.7,670165.25,-262763.12,59.3,Air+FixedWing,Red,Allies,MiG-21Bis,固定翼-1-1,固定翼-1,us
2016-06-21T04:00:43Z,1466481643,101,42.3494304,42.3885781,2000,0,0.6,65.7,670356.88,-262649.22,59.3,Air+FixedWing,Red,Allies,MiG-21Bis,固定翼-1-1,固定翼-1,us
2016-06-21T04:00:44Z,1466481644,101,42.351867,42.3893972,2000,0,0.6,65.7,670547.56,-262535.88,59.3,Air+FixedWing,Red,Allies,MiG-21Bis,固定翼-1-1,固定翼-1,us
2016-06-21T04:00:45Z,1466481645,101,42.3543077,42.3902176,2000,0,0.6,65.7,670738.5,-262422.34,59.3,Air+FixedWing,Red,Allies,MiG-21Bis,固定翼-1-1,固定翼-1,us
2016-06-21T04:00:46Z,1466481646,101,42.3567573,42.391041,2000,0,0.6,65.7,670930.25,-262308.38,59.3,Air+FixedWing,Red,Allies,MiG-21Bis,固定翼-1-1,固定翼-1,us
2016-06-21T04:00:47Z,1466481647,101,42.359197,42.3918609,2000,0,0.6,65.7,671121.19,-262194.91,59.3,Air+FixedWing,Red,Allies,MiG-21Bis,固定翼-1-1,固定翼-1,us
2016-06-21T04:00:48Z,1466481648,101,42.3616318,42.3926791,2000,0,0.6,65.7,671311.69,-262081.64,59.3,Air+FixedWing,Red,Allies,MiG-21Bis,固定翼-1-1,固定翼-1,us
2016-06-21T04:00:49Z,1466481649,101,42.3640766,42.3935006,2000,0,0.6,65.7,671503,-261967.94,59.3,Air+FixedWing,Red,Allies,MiG-21Bis,固定翼-1-1,固定翼-1,us
2016-06-21T04:00:50Z,1466481650,101,42.3665123,42.394319,2000,0,0.6,65.7,671693.56,-261854.64,59.3,Air+FixedWing,Red,Allies,MiG-21Bis,固定翼-1-1,固定翼-1,us
2016-06-21T04:00:51Z,1466481651,101,42.3689585,42.3951407,2000,0,0.6,65.7,671885,-261740.86,59.3,Air+FixedWing,Red,Allies,MiG-21Bis,固定翼-1-1,固定翼-1,us
2016-06-21T04:00:52Z,1466481652,101,42.3714026,42.3959618,2000,0,0.6,65.7,672076.19,-261627.19,59.3,Air+FixedWing,Red,Allies,MiG-21Bis,固定翼-1-1,固定翼-1,us
2016-06-21T04:00:53Z,1466481653,101,42.3738497,42.3967837,2000,0,0.6,65.7,672267.62,-261513.38,59.3,Air+FixedWing,Red,Allies,MiG-21Bis,固定翼-1-1,固定翼-1,us
2016-06-21T04:00:54Z,1466481654,101,42.3762786,42.3975995,2000,0,0.6,65.7,672457.69,-261400.41,59.3,Air+FixedWing,Red,Allies,MiG-21Bis,固定翼-1-1,固定翼-1,us
2016-06-21T04:00:55Z,1466481655,101,42.3787205,42.3984195,2000,0,0.6,65.7,672648.75,-261286.84,59.3,Air+FixedWing,Red,Allies,MiG-21Bis,固定翼-1-1,固定翼-1,us
2016-06-21T04:00:56Z,1466481656,101,42.3811631,42.3992397,2000,0,0.6,65.7,672839.88,-261173.25,59.3,Air+FixedWing,Red,Allies,MiG-21Bis,固定翼-1-1,固定翼-1,us
2016-06-21T04:00:57Z,1466481657,101,42.3836031,42.400059,2000,0,0.6,65.7,673030.75,-261059.78,59.3,Air+FixedWing,Red,Allies,MiG-21Bis,固定翼-1-1,固定翼-1,us
2016-06-21T04:00:58Z,1466481658,101,42.3860431,42.4008781,2000,0,0.6,65.7,673221.62,-260946.31,59.3,Air+FixedWing,Red,Allies,MiG-21Bis,固定翼-1-1,固定翼-1,us
2016-06-21T04:00:59Z,1466481659,101,42.3884862,42.4016982,2000,0,0.6,65.7,673412.75,-260832.69,59.3,Air+FixedWing,Red,Allies,MiG-21Bis,固定翼-1-1,固定翼-1,us
2016-06-21T04:01:00Z,1466481660,101,42.3909338,42.4025198,2000,0,0.6,65.7,673604.25,-260718.88,59.3,Air+FixedWing,Red,Allies,MiG-21Bis,固定翼-1-1,固定翼-1,us
2016-06-21T04:01:01Z,1466481661,101,42.3933735,42.4033386,2000,0,0.6,65.7,673795.06,-260605.44,59.3,Air+FixedWing,Red,Allies,MiG-21Bis,固定翼-1-1,固定翼-1,us
2016-06-21T04:01:02Z,1466481662,101,42.3958145,42.4041578,2000,0,0.6,65.7,673986,-260491.92,59.3,Air+FixedWing,Red,Allies,MiG-21Bis,固定翼-1-1,固定翼-1,us
2016-06-21T04:01:03Z,1466481663,101,42.3982683,42.4049812,2000,0,0.6,65.7,674177.94,-260377.83,59.3,Air+FixedWing,Red,Allies,MiG-21Bis,固定翼-1-1,固定翼-1,us
2016-06-21T04:01:04Z,1466481664,101,42.4006979,42.4057965,2000,0,0.6,65.7,674368.06,-260264.86,59.3,Air+FixedWing,Red,Allies,MiG-21Bis,固定翼-1-1,固定翼-1,us
2016-06-21T04:01:05Z,1466481665,101,42.4031516,42.4066197,2000,0,0.6,65.7,674559.94,-260150.77,59.3,Air+FixedWing,Red,Allies,MiG-21Bis,固定翼-1-1,固定翼-1,us
2016-06-21T04:01:06Z,1466481666,101,42.4055896,42.4074376,2000,0,0.6,65.7,674750.62,-260037.42,59.3,Air+FixedWing,Red,Allies,MiG-21Bis,固定翼-1-1,固定翼-1,us
2016-06-21T04:01:07Z,1466481667,101,42.4080208,42.408253,2000,0,0.6,65.7,674940.81,-259924.39,59.3,Air+FixedWing,Red,Allies,MiG-21Bis,固定翼-1-1,固定翼-1,us
2016-06-21T04:01:08Z,1466481668,101,42.4104673,42.4090736,2000,0,0.6,65.7,675132.12,-259810.64,59.3,Air+FixedWing,Red,Allies,MiG-21Bis,固定翼-1-1,固定翼-1,us
2016-06-21T04:01:09Z,1466481669,101,42.4129067,42.4098917,2000,0,0.6,65.7,675322.94,-259697.23,59.3,Air+FixedWing,Red,Allies,MiG-21Bis,固定翼-1-1,固定翼-1,us
2016-06-21T04:01:10Z,1466481670,101,42.4153587,42.4107139,2000,0,0.6,65.7,675514.69,-259583.23,59.3,Air+FixedWing,Red,Allies,MiG-21Bis,固定翼-1-1,固定翼-1,us
2016-06-21T04:01:11Z,1466481671,101,42.4178052,42.4115343,2000,0,0.6,65.7,675706.06,-259469.5,59.3,Air+FixedWing,Red,Allies,MiG-21Bis,固定翼-1-1,固定翼-1,us
2016-06-21T04:01:12Z,1466481672,101,42.4202382,42.41235,2000,0,0.6,65.7,675896.31,-259356.39,59.3,Air+FixedWing,Red,Allies,MiG-21Bis,固定翼-1-1,固定翼-1,us
2016-06-21T04:01:13Z,1466481673,101,42.422693,42.413173,2000,0,0.6,65.7,676088.31,-259242.27,59.3,Air+FixedWing,Red,Allies,MiG-21Bis,固定翼-1-1,固定翼-1,us
2016-06-21T04:01:14Z,1466481674,101,42.4251269,42.4139889,2000,0,0.6,65.7,676278.62,-259129.12,59.3,Air+FixedWing,Red,Allies,MiG-21Bis,固定翼-1-1,固定翼-1,us
2016-06-21T04:01:15Z,1466481675,101,42.4275623,42.4148051,2000,0,0.6,65.7,676469.06,-259015.92,59.3,Air+FixedWing,Red,Allies,MiG-21Bis,固定翼-1-1,固定翼-1,us
2016-06-21T04:01:16Z,1466481676,101,42.4300162,42.4156276,2000,0,0.6,65.7,676660.94,-258901.84,59.3,Air+FixedWing,Red,Allies,MiG-21Bis,固定翼-1-1,固定翼-1,us
2016-06-21T04:01:17Z,1466481677,101,42.4324564,42.4164453,2000,0,0.6,65.7,676851.75,-258788.42,59.3,Air+FixedWing,Red,Allies,MiG-21Bis,固定翼-1-1,固定翼-1,us
2016-06-21T04:01:18Z,1466481678,101,42.4349027,42.417265,2000,0,0.6,65.7,677043.06,-258674.72,59.3,Air+FixedWing,Red,Allies,MiG-21Bis,固定翼-1-1,固定翼-1,us
2016-06-21T04:01:19Z,1466481679,101,42.4373509,42.4180854,2000,0,0.6,65.7,677234.56,-258560.91,59.3,Air+FixedWing,Red,Allies,MiG-21Bis,固定翼-1-1,固定翼-1,us
2016-06-21T04:01:20Z,1466481680,101,42.4397815,42.4188996,2000,0,0.6,65.7,677424.56,-258447.95,59.3,Air+FixedWing,Red,Allies,MiG-21Bis,固定翼-1-1,固定翼-1,us
2016-06-21T04:01:21Z,1466481681,101,42.442226,42.4197185,2000,0,0.6,65.7,677615.69,-258334.33,59.3,Air+FixedWing,Red,Allies,MiG-21Bis,固定翼-1-1,固定翼-1,us
2016-06-21T04:01:22Z,1466481682,101,42.4446626,42.4205346,2000,0,0.6,65.7,677806.19,-258221.08,59.3,Air+FixedWing,Red,Allies,MiG-21Bis,固定翼-1-1,固定翼-1,us
2016-06-21T04:01:23Z,1466481683,101,42.4471066,42.4213532,2000,0,0.6,65.7,677997.31,-258107.48,59.3,Air+FixedWing,Red,Allies,MiG-21Bis,固定翼-1-1,固定翼-1,us
2016-06-21T04:01:24Z,1466481684,101,42.4495624,42.4221756,2000,0,0.6,65.7,678189.31,-257993.36,59.3,Air+FixedWing,Red,Allies,MiG-21Bis,固定翼-1-1,固定翼-1,us
2016-06-21T04:01:25Z,1466481685,101,42.4520103,42.4229954,2000,0,0.6,65.7,678380.69,-257879.59,59.3,Air+FixedWing,Red,Allies,MiG-21Bis,固定翼-1-1,固定翼-1,us
2016-06-21T04:01:26Z,1466481686,101,42.454447,42.4238113,2000,0,0.6,65.7,678571.19,-257766.36,59.3,Air+FixedWing,Red,Allies,MiG-21Bis,固定翼-1-1,固定翼-1,us
2016-06-21T04:01:27Z,1466481687,101,42.4568806,42.424626,2000,0,0.6,65.7,678761.44,-257653.25,59.3,Air+FixedWing,Red,Allies,MiG-21Bis,固定翼-1-1,固定翼-1,us
2016-06-21T04:01:28Z,1466481688,101,42.4593275,42.4254451,2000,0,0.6,65.7,678952.75,-257539.55,59.3,Air+FixedWing,Red,Allies,MiG-21Bis,固定翼-1-1,固定翼-1,us
2016-06-21T04:01:29Z,1466481689,101,42.4617699,42.4262627,2000,0,0.6,65.7,679143.69,-257426.05,59.3,Air+FixedWing,Red,Allies,MiG-21Bis,固定翼-1-1,固定翼-1,us
2016-06-21T04:01:30Z,1466481690,101,42.4642256,42.4270846,2000,0,0.6,65.7,679335.62,-257311.94,59.3,Air+FixedWing,Red,Allies,MiG-21Bis,固定翼-1-1,固定翼-1,us
2016-06-21T04:01:31Z,1466481691,101,42.4666619,42.4278999,2000,0,0.6,65.8,679526.06,-257198.72,59.3,Air+FixedWing,Red,Allies,MiG-21Bis,固定翼-1-1,固定翼-1,us
2016-06-21T04:01:32Z,1466481692,101,42.4690982,42.4287153,2000,0,0.6,65.8,679716.56,-257085.52,59.3,Air+FixedWing,Red,Allies,MiG-21Bis,固定翼-1-1,固定翼-1,us
2016-06-21T04:01:33Z,1466481693,101,42.4715518,42.4295362,2000,0,0.6,65.8,679908.31,-256971.5,59.3,Air+FixedWing,Red,Allies,MiG-21Bis,固定翼-1-1,固定翼-1,us
2016-06-21T04:01:34Z,1466481694,101,42.4740025,42.4303561,2000,0,0.6,65.8,680099.88,-256857.64,59.3,Air+FixedWing,Red,Allies,MiG-21Bis,固定翼-1-1,固定翼-1,us
2016-06-21T04:01:35Z,1466481695,101,42.476431,42.4311686,2000,0,0.6,65.8,680289.75,-256744.8,59.3,Air+FixedWing,Red,Allies,MiG-21Bis,固定翼-1-1,固定翼-1,us
2016-06-21T04:01:36Z,1466481696,101,42.4788812,42.4319882,2000,0,0.6,65.8,680481.25,-256630.95,59.3,Air+FixedWing,Red,Allies,MiG-21Bis,固定翼-1-1,固定翼-1,us
2016-06-21T04:01:37Z,1466481697,101,42.4813262,42.432806,2000,0,0.6,65.8,680672.31,-256517.36,59.3,Air+FixedWing,Red,Allies,MiG-21Bis,固定翼-1-1,固定翼-1,us
2016-06-21T04:01:38Z,1466481698,101,42.4837708,42.4336236,2000,0,0.6,65.8,680863.38,-256403.8,59.3,Air+FixedWing,Red,Allies,MiG-21Bis,固定翼-1-1,固定翼-1,us
2016-06-21T04:01:39Z,1466481699,101,42.4862161,42.4344413,2000,0,0.6,65.8,681054.5,-256290.17,59.3,Air+FixedWing,Red,Allies,MiG-21Bis,固定翼-1-1,固定翼-1,us
2016-06-21T04:01:40Z,1466481700,101,42.4886512,42.4352556,2000,0,0.6,65.8,681244.81,-256177.05,59.3,Air+FixedWing,Red,Allies,MiG-21Bis,固定翼-1-1,固定翼-1,us
2016-06-21T04:01:41Z,1466481701,101,42.4910985,42.4360738,2000,0,0.6,65.8,681436.12,-256063.34,59.3,Air+FixedWing,Red,Allies,MiG-21Bis,固定翼-1-1,固定翼-1,us
2016-06-21T04:01:42Z,1466481702,101,42.4935454,42.4368919,2000,0,0.6,65.8,681627.31,-255949.67,59.3,Air+FixedWing,Red,Allies,MiG-21Bis,固定翼-1-1,固定翼-1,us
2016-06-21T04:01:43Z,1466481703,101,42.4959833,42.4377068,2000,0,0.6,65.8,681817.88,-255836.44,59.3,Air+FixedWing,Red,Allies,MiG-21Bis,固定翼-1-1,固定翼-1,us
2016-06-21T04:01:44Z,1466481704,101,42.4984309,42.4385249,2000,0,0.6,65.8,682009.12,-255722.72,59.3,Air+FixedWing,Red,Allies,MiG-21Bis,固定翼-1-1,固定翼-1,us
2016-06-21T04:01:45Z,1466481705,101,42.5008712,42.4393404,2000,2.8,0.6,65.8,682199.81,-255609.38,59.3,Air+FixedWing,Red,Allies,MiG-21Bis,固定翼-1-1,固定翼-1,us
2016-06-21T04:01:46Z,1466481706,101,42.5033259,42.4401356,2000.8,49.9,3.1,67.8,682392,-255498.16,61.3,Air+FixedWing,Red,Allies,MiG-21Bis,固定翼-1-1,固定翼-1,us